,business_id,name,neighborhood,address,city,state,postal_code,latitude,longitude,stars,review_count,is_open,categories
17,b2I2DXtZVnpUMCXp1JON7A,"""Meineke Car Care Center""",,"""2518 Ironwood Dr""",Sun Prairie,WI,53590,43.18508,-89.262047,3.5,9,1,tires
47,Z-4KHBDbdwyC7PwA_JE5Xw,"""William Jon Salon & Spa""",Regent,"""2701 University Ave, Ste H""",Madison,WI,53705,43.073145200000006,-89.43440179999999,4.5,14,1,tanning
74,zWb-kwaANIPMS_AFBbVOew,"""Banana Republic""",,"""32 W Towne Mall""",Madison,WI,53719,43.0570896,-89.5092997,2.0,8,1,mens clothing
81,B5EZlEDH6AVDk8tQGHAGqg,"""Villa Tap""",Sherman,"""2302 Packers Ave""",Madison,WI,53704,43.1233893,-89.3553901,4.0,34,1,american (traditional)
85,NoxzrJbWS4xD9ft0ygD3JA,"""The Brink Lounge""",Williamson - Marquette,"""701 E Washington Ave, Ste 105""",Madison,WI,53703,43.0798171,-89.3762962,3.5,30,1,event planning & services
111,evwSIx2mmvpN0V0QteOAsA,"""Spay Me! Clinic""",,"""4475 Robertson Rd""",Madison,WI,53714,43.091157,-89.308487,3.0,11,1,veterinarians
164,pOyt4Fon5n783Jc-hrSq-A,"""Apple Wellness - Fitchburg Health Store""",,"""6313 McKee Rd""",Fitchburg,WI,53719,43.015366799999995,-89.4816815,4.5,14,1,health markets
320,AuE8ETTblOgY1CL3c9Up2g,"""Walgreens""",,"""275 Davison Dr""",Sun Prairie,WI,53590,43.18692539999999,-89.2288242,2.0,4,1,drugstores
358,SdqVhZDwk8c89EnXPhKndQ,"""J&P Fresh Market""",,"""6634 Watts Rd""",Madison,WI,53719,43.050634,-89.49771700000001,4.0,11,1,grocery
465,in7ne7A3fhah-gSA5UzuoQ,"""Stanton Optical""",Norman Acres,"""4302 E Washington Ave""",Madison,WI,53704,43.1270494921,-89.3107579753,1.5,23,1,health & medical
471,ugdUuApH3pYXggW5qpbALg,"""Mr. Torta's""",Elvehjem,"""4527 Cottage Grove Rd""",Madison,WI,53716,43.083976745,-89.3033632212,3.5,19,1,restaurants
730,SOhDXouPwa6C5cf-3hcl2Q,"""Hilton Madison""",Capitol,"""9 E Wilson""",Madison,WI,53703,43.072697399999996,-89.3806495,3.5,98,1,party & event planning
743,XXo6JbN_i_WpsXp_C5zPPg,"""Madison Circus Space""",Schenk - Atwood,"""2100 Winnebago St""",Madison,WI,53704,43.0939689,-89.35453829999999,4.5,3,1,event planning & services
744,93rggk3d57B49FsHISfiYw,"""Anytime Garage Door Repair""",Burke Heights,"""917 Walsh Rd, Unit 104""",Madison,WI,53714,43.111036999999996,-89.30901709999999,5.0,8,1,home services
750,sZyoRWVCCr_Hrj82AynIAw,"""Central Park""",Williamson - Marquette,"""202 S Ingersoll St""",Madison,WI,53703,43.083288700000004,-89.36781690000001,4.5,4,1,active life
754,SRrLzl_1gKisaGy3c69uIA,"""Eyemart Express""",,"""6658 Odana Road""",Madison,WI,53719,43.0564694,-89.49485909999999,3.5,12,1,health & medical
770,2GyeJSLoobATU1tjeU1jpA,"""Paradigm Gardens""",,"""2025 S Stoughton Rd""",Madison,WI,53716,43.0685175,-89.3080125,4.5,8,1,shopping
836,5Y-p9QJLrg2P0I8RjJ9TTQ,"""Chang Jiang""",,"""4929 Commercial Ave""",Madison,WI,53704,43.105634146499995,-89.2967010739,3.0,9,1,restaurants
876,n_8suHvITWk-1qLhNefmag,"""Wisconsin Dental Solutions""",,"""1260 W Main St""",Sun Prairie,WI,53590,43.180137,-89.23455799999999,5.0,3,1,cosmetic dentists
983,gxr4EQjEgohrCNSUHeLLuQ,"""Madison Oral Surgery & Dental Implants""",,"""5801 Research Park Blvd, Ste 110""",Madison,WI,53719,43.054462,-89.478408,4.5,7,1,dentists
1042,Hm3PtOoOI-0mghpZytYqyQ,"""Baldwin Eye Care""",,"""1721 W Main St""",Sun Prairie,WI,53590,43.177124,-89.242478,3.5,3,1,optometrists
1068,rMZE4yAqCRuD9AjYoMCITw,"""Advanced Pain Management""",Greenbush,"""202 S Park St""",Madison,WI,53715,43.065815,-89.40142370000001,2.0,3,1,doctors
1102,-EJZRlgLXORMaR_8XMRH2w,"""Center for Oral & Maxillofacial Surgery""",Walnut Grove,"""7007 Old Sauk Rd""",Madison,WI,53717,43.07548,-89.503099,4.0,5,1,dentists
1179,e7g34ikXUrH1jonV9ggaWQ,"""Chalet Ski & Patio""",,"""5252 Verona Rd""",Fitchburg,WI,53711,43.022008899999996,-89.47019420000001,2.5,5,1,shopping
1234,EZdLmNto9A5FjkTK2oU66w,"""Greenway Station Shopping Center""",,"""1620 Deming Way""",Middleton,WI,53562,43.0912145,-89.52753220000001,3.0,9,1,fashion
1287,Biou7Y1vSm5nFtJBecUHsA,"""Wright Vision Care""",,"""2808 Prairie Lakes Dr, Ste 106""",Sun Prairie,WI,53590,43.1671641,-89.2694132,4.0,3,1,shopping
1400,GdnLAgRXt43eISMtJEOZRg,"""Sushi Express""",Capitol,"""610 University Ave""",Madison,WI,53715,43.073336100000006,-89.396349,3.5,76,1,japanese
1463,sHNIPQEuBNEYIFM85suTgQ,"""Gless Nails Spa""",,"""6425 Odana Rd, Ste 12""",Madison,WI,53719,43.054171999999994,-89.4910913,1.5,3,1,beauty & spas
1502,XsqeR20R2MsEULWpitLwCA,"""Verizon""",,"""6313 Mckee Rd""",Fitchburg,WI,53719,43.015384047299996,-89.4813011965,2.5,12,1,professional services
1510,B7wipW2uZRj7syuQiRTH4A,"""Pickle Jar""",South Campus,"""E Washington Pinckney""",Madison,WI,53714,43.070924184700004,-89.4064730428,4.0,11,1,barbeque
1665,oEXuU_YJJ3rtdeIo_0YDaA,"""Ultra1 Studioz""",Eken Park,"""2250 Myrtle St""",Madison,WI,53704,43.110267,-89.35396899999999,3.5,3,1,professional services
1675,0TIusMZZqD7G0BYIcBzx2A,"""Dorn True Value Hardware""",Summit Woods,"""1348 S Midvale Blvd""",Madison,WI,53711,43.037974295299996,-89.4531360852,4.5,5,1,home services
1748,NkdpsbNiafCM1ENutFksMg,"""Village Cafe""",,"""214 W Cottage Grove Rd""",Cottage Grove,WI,53527,43.0863206,-89.2027298,4.0,8,1,breakfast & brunch
1906,Y5Vbtaj_pkrhb99V4Q-53Q,"""Denny's""",,"""433 S Gammon Rd""",Madison,WI,53719,43.0582431572,-89.50213640930001,3.0,19,1,american (traditional)
1969,RMkBZDwEbcv5Ctd-a2A0Lw,"""Gino's Italian Deli""",,"""4606 Verona Rd""",Madison,WI,53711,43.0351337,-89.4562756,4.0,62,1,restaurants
2047,29o-qEDIRpXmVmSPNsH4sA,"""Vin Santo""",,"""7462 Hubbard Ave""",Middleton,WI,53562,43.095605799999994,-89.5108863,4.0,109,1,italian
2071,xrHoOaeiZNWshu2xUzT2QQ,"""Fairfield Inn & Suites by Marriott Madison West/Middleton""",,"""8212 Greenway Blvd""",Middleton,WI,53562,43.0907257905,-89.5229932666,3.5,17,1,hotels & travel
2076,yWWZZbRiCeEmu1WrM4Oo3g,"""Art Gecko on Monroe""",Vilas,"""1725 Monroe St""",Madison,WI,53774,43.065473499999996,-89.4161358,4.5,10,1,womens clothing
2112,x6RgesZWfibmBAvBr8pYdg,"""Stella's Bakery""",,"""2908 Syene Rd""",Fitchburg,WI,53713,43.0310645,-89.3941432,4.0,40,1,bakeries
2116,KK3Vamv05Q_1kTTW0eKvPw,"""Neils's Liquor""",,"""2415 Allen Blvd""",Middleton,WI,53562,43.1018244,-89.4854239,2.5,3,1,beer
2181,0WI_b8mIwXBHTR9Upjr2-g,"""Superior Exteriors and Interiors""",South Campus,"""1360 Regent St, Ste 153""",Madison,WI,53715,43.067900099999996,-89.4086589,2.5,3,1,roofing
2205,KnDBopUGEpo1CUtjgLg-bg,"""Klinke Cleaners""",Capitol,"""412 E Washington Ave""",Madison,WI,53703,43.077853000000005,-89.3801816,1.5,15,1,laundry services
2213,pNgDhHaeFkWQW71NzT9wzg,"""KFC""",,"""1516 Greenway Cross""",Madison,WI,53713,43.0315,-89.4074,1.0,5,1,restaurants
2240,mKT30qU_MlLj4Ps82JAZ8w,"""Uno Pizzeria & Grill""",High Crossing,"""3010 Crossroads Dr""",Madison,WI,53718,43.1354903,-89.29081190000001,3.0,65,1,pizza
2241,X4w6_iAqN8ZqZ15a7YWPgw,"""Mr Brews Taphouse""",High Crossing,"""5271 High Crossing Blvd""",Madison,WI,53718,43.1380457692,-89.2894092848,3.0,34,1,beer bar
2275,1pdJ0R1ITVfDxjLt9KjaZQ,"""Steinhafels Furniture""",,"""85 E Towne Mall""",Madison,WI,53704,43.128074299999994,-89.30432259999999,2.5,3,1,furniture stores
2310,84WYW7OfV-IXUJk95EL5_Q,"""Samba Brazilian Grill""",Capitol,"""240 W Gilman St, Fl 2""",Madison,WI,53703,43.07546,-89.393063,3.5,173,1,restaurants
2324,mdG_pxU4yFFjK0qEQr2xyQ,"""Baywash Stoughton""",,"""1704 US Highway 51 And 138""",Stoughton,WI,53589,42.9185565,-89.2491276,1.0,3,1,car wash
2349,VINyha5jnDXDNtsPQ_SRNQ,"""AT&T""",,"""406 S Gammon Rd""",Madison,WI,53719,43.060019399999995,-89.50290140000001,2.5,6,1,professional services
2366,njCvQjqTWRHQ_X2cJ42scg,"""Camping World""",,"""6195 Metro Dr""",De Forest,WI,53532,43.183770200000005,-89.328006,3.0,5,1,automotive
2442,Vbkb2shDxUE8H3PzrFnypA,"""Ella's Deli""",Eken Park,"""2902 E Washington Ave""",Madison,WI,53704,43.103513299999996,-89.344598,3.0,249,1,local flavor
2445,L2w7QtogInHnU9hyzegETA,"""Triangle Market""",Capitol,"""302 State St""",Madison,WI,53703,43.0749221,-89.3903345,2.5,7,1,grocery
2448,3a1w3Ufs9CCC3GJTAV8EpQ,"""McDonald's""",,"""4500 University Ave""",Madison,WI,53705,43.075891999999996,-89.454836,1.5,6,1,fast food
2594,10jP6njt3elD90gaHF1FBQ,"""Kilwins""",Capitol,"""208 State St""",Madison,WI,53703,43.074998,-89.38853399999999,4.5,58,1,chocolatiers & shops
2638,qHWXWuCm3zOP3of1o_PULg,"""Verona Family Dental""",,"""271 S Main St""",Verona,WI,53593,42.987345,-89.53339009999999,5.0,16,1,health & medical
2655,jXEDeHZu4h8zcBOqf__CPA,"""Rock'n Rollz""",,"""5208 Farwell St""",McFarland,WI,53558,43.01381876399999,-89.2927554692,3.5,6,1,pizza
2674,tORH_LDga3t1bbuluhuxiQ,"""Smoky's Club""",,"""3005 University Ave""",Madison,WI,53705,43.074981,-89.44173570000001,3.0,70,1,steakhouses
2675,PcyXZCMXVHHA268alCQ7eA,"""Lush Fresh Handmade Cosmetics""",,"""702 N Midvale Blvd""",Madison,WI,53705,43.0733473,-89.45303320000001,4.5,21,1,shopping
2717,ng3f8pOluVr6pM55gwHzxw,"""Terminix""",,"""2017 S Stoughton Rd""",Madison,WI,53716,43.068504506000004,-89.3083159626,1.0,4,1,pest control
2732,Ld7C_cR7I5twFdLDYCljEw,"""Adler's Automotive Service""",,"""119 E Main St""",Waunakee,WI,53597,43.192186,-89.453478,5.0,5,1,auto repair
2796,0bLV0haONwFIGHyuyd209w,"""Bachmanns Pools, Spas & Saunas""",,"""2225 S Stoughton Rd""",Madison,WI,53716,43.0654123,-89.30830490000001,2.5,3,1,pool & hot tub service
2798,c9IG5P_DJUp7oqwA9IcyOg,"""The UPS Store""",,"""2858 University Ave""",Madison,WI,53705,43.0747876,-89.4382662,3.5,4,1,local services
2886,-uMpSkdN39sz9MbjkauVTQ,"""Taquitos Marimar""",Capitol,"""Downtown Library Mall""",Madison,WI,,43.0755245,-89.3989878,4.5,6,1,restaurants
2908,ecXP80GWT6zZ2qqZHpUCtQ,"""Muramoto Downtown""",Capitol,"""108 King St""",Madison,WI,53703,43.074789700000004,-89.38120713059999,4.0,15,1,bars
2915,aWPt3CCREjVBfAelpb4-hA,"""Holiday Fantasy In Lights""",,"""1156 Olin-Turville Ct""",Madison,WI,53715,43.0537192415,-89.3782450778,4.5,6,1,arts & entertainment
2948,Yvv-nlFmljoKeaQqbb4zMA,"""Jung Garden Center""",,"""1123 N Bristol St""",Sun Prairie,WI,53590,43.1963627,-89.21002829999999,3.5,4,1,nurseries & gardening
2968,gapf3si69XZVKiaBilfwWQ,"""Noodles & Company""",,"""2812 Prairie Lakes Dr""",Sun Prairie,WI,53590,43.168339,-89.269423,3.0,15,1,restaurants
3069,3Km2gl7VuClXkN8uqq559w,"""Kwik Trip""",,"""208 E Main St""",Waunakee,WI,53597,43.191559999999996,-89.45222,4.0,10,1,grocery
3108,4XGjbI2Ggi-kdgt9eZR83w,"""World Buffet""",,"""2451 W Broadway""",Monona,WI,53713,43.046421,-89.352063,2.5,41,1,buffets
3176,AhYG10mP_LOHePr_SC4Peg,"""BB Jack's""",,"""300 E Holum St""",DeForest,WI,53532,43.247959,-89.339923,3.5,37,1,nightlife
3254,JxeWylDVvSdedR_BzPEP7w,"""Zimbrick Body Shop""",Leopold,"""1601 W Beltline Hwy""",Madison,WI,53713,43.031422,-89.40963,1.0,3,1,car dealers
3310,H_og8Pdq2ijAx1QrWjCMNQ,"""Hyvee Market Cafe""",Midvale Heights Community,"""675 S Whitney Way""",Madison,WI,53711,43.0509638462,-89.4728949666,3.5,5,1,american (traditional)
3364,-BHsT9MVkt7NQblr0AXZ9g,"""Target Store""",Junction Ridge,"""201 Junction Rd""",Madison,WI,53717,43.06223120000001,-89.52446579999999,3.5,20,1,shopping
3444,CfW-088nFNuUF9O7363lwA,"""Panera Bread""",Capitol,"""656 W Washington Ave""",Madison,WI,53703,43.067837,-89.395321,3.0,22,1,food
3452,foil07oPjuklatciPfladQ,"""Sisters On Main""",,"""2022 Main St""",Cross Plains,WI,53528,43.1132279,-89.64892569999999,3.5,3,1,laundry services
3510,TIB1FnRE2y1jqUEd-bN3rg,"""Sears""",,"""53 W Towne Mall C""",Madison,WI,53719,43.055673299999995,-89.50552890000002,1.5,7,1,fashion
3624,6X9-l9RDpbYyZ8pnBsgzaw,"""Stonewood Village Apartments""",Heistand,"""302 Parkwood Ln""",Madison,WI,53714,43.1035247,-89.3111588,1.0,6,1,home services
3666,r7A9vBTA0lyFly6pcVuliQ,"""Blue Plate Catering""",,"""702 S High Point Rd""",Madison,WI,53719,43.0511666,-89.5224329,4.0,23,1,event planning & services
3676,4pCiT6kaRcxnXsyTQScZIQ,"""Tabby & Jacks""",,"""2970 Cahill Main""",Fitchburg,WI,53711,43.0173808,-89.42380379999999,3.5,24,1,pets
3709,peCPM2dgcNvewZIr-OhMVg,"""Liquid Nightclub""",Capitol,"""624 University Ave""",Madison,WI,53715,43.073547,-89.39692590000001,2.5,14,1,music venues
3773,29iErFPoWBTbIVPpp9qSyg,"""Ohio Tavern""",Schenk - Atwood,"""224 Ohio Ave""",Madison,WI,53704,43.09389470000001,-89.3473282,4.0,34,1,mexican
3792,bNdLi3Vs1HNn04CaO8qBgw,"""Monk's Bar & Grill - Sun Prairie""",,"""2832 Prairie Lakes Dr""",Sun Prairie,WI,53590,43.1662620413,-89.2708006005,3.0,66,1,burgers
3816,zf1PntRvwazVKtwBq-BmUQ,"""Sport & Spine Physical Therapy""",Hill Farms - University Neighborhood,"""340 S Whitney Way""",Madison,WI,53705,43.061421100000004,-89.4728982,5.0,5,1,health & medical
3873,jK2H6GPF_nFmXKS4pxTSpQ,"""In the Dogz House""",,"""1337 Greenway Cross""",Madison,WI,53713,43.031384100000004,-89.406356,4.5,10,1,pet groomers
3903,0kzPQQL8wVcHlBQzMdRdWQ,"""The Thirsty Goat""",,"""3040 Cahill Main""",Fitchburg,WI,53711,43.0202796,-89.41920920000001,3.0,97,1,burgers
3904,0umZMt2hvc85BQEJ81YP2A,"""Atomic Koi""",,"""2685 Research Park Dr""",Fitchburg,WI,53711,43.0004284,-89.4258911,4.0,54,1,lounges
4036,jZ9Lp-1alENJJNuq--qNiQ,"""Mousehouse Cheesehaus""",,"""4494 Lake Cir""",Windsor,WI,53598,43.1963007,-89.34350699999999,4.5,58,1,food
4109,1liUSt-YGGhDpXpik_oezQ,"""Klein's Floral & Greenhouses""",Westchester Gardens,"""3758 E Washington Ave""",Madison,WI,53704,43.118634,-89.322792,3.5,13,1,florists
4216,6pG7n8Rx_7ZXeQQk690Nsw,"""Fair Trade Coffee House""",Capitol,"""418 State St""",Madison,WI,53703,43.075046,-89.392028,4.0,73,1,coffee & tea
4330,MOsFhDVav42shCq9-rgejw,"""Potbelly Sandwich Shop""",,"""2245 Zeier Rd""",Madison,WI,53704,43.129181,-89.3024425,5.0,6,1,sandwiches
4347,w53wITixOgDFWld-X1mMng,"""Main Depot Tavern""",Capitol,"""627 W Main St""",Madison,WI,53703,43.0672802,-89.392125,4.0,14,1,american (traditional)
4440,HebkizMT9drp9Uu6qzJNCQ,"""H & M""",,"""52 W Towne Mall""",Madison,WI,53719,43.0570896,-89.5092993,3.0,4,1,shopping
4474,YmOBwZRn44QYJsch8kLBYg,"""Dawn Goplin - State Farm Insurance Agent""",Junction Ridge,"""515 Junction Rd, Ste 2400""",Madison,WI,53717,43.0715594,-89.5245488,2.5,3,1,insurance
4568,WVZOqMZR5uWQMPp3xMcHHA,"""McFarland House Cafe""",,"""5923 Exchange St""",McFarland,WI,53558,43.0129986062,-89.2890912294,4.0,12,1,internet cafes
4615,8pPD7BhiPAq-SC4vSBns1w,"""Speedy Muffler & Brake Center""",Emerson East,"""2450 E Washington Ave""",Madison,WI,53704,43.0995576,-89.35024140000002,5.0,23,1,automotive
4715,wIXFdQ3bp6i0AAweb4TRRw,"""007 Nails""",,"""1017 Emerald Ter""",Sun Prairie,WI,53590,43.18672479999999,-89.2297532,5.0,3,1,beauty & spas
4735,JWZfTpT2EqCqenfuIDbNZg,"""Midwest Phone Lab""",Spring Harbor,"""5437 University Ave""",Madison,WI,53705,43.0816094382,-89.47521686110001,5.0,17,1,mobile phone repair
4750,Ab3TK84hCZ1pl5OC3m-l3g,"""Carnation Chem-Dry Middleton""",Meadowood,"""5712 Raymond Rd""",Madison,WI,53711,43.032568700000006,-89.47826309999999,5.0,3,1,local services
4782,U--dPMMXYMaks6dV9AJnEw,"""Apple Store""",,"""702 N Midvale Blvd""",Madison,WI,53705,43.0725574684,-89.4528535391,3.0,57,1,mobile phones
4943,_6nc3JzPFEYo0allt-rqQg,"""The Grounds Guys of Madison""",Glendale,"""3234 County Hwy N, Suite B""",Cottage Grove,WI,53527,43.064100973500004,-89.31585988290001,3.5,3,1,local services
4992,nsw3tlB-hwz4KbPYcuaSww,"""Novanta""",,"""8452 Old Sauk Rd""",Madison,WI,53562,43.0749188,-89.52984659999998,4.5,177,1,pizza
4999,H5PIiiIM92cyOCcLpOKm4A,"""Comedy Club On State""",Capitol,"""202 State St""",Madison,WI,53703,43.0748907,-89.38827320000001,4.0,61,1,comedy clubs
5084,QEI8FbKo4oJcJ7nYTL67dA,"""Elver Park""",,"""1250 McKenna Blvd""",Madison,WI,53719,43.0384599,-89.50219399999999,4.5,6,1,playgrounds
5199,ZaTbKhLraYurkcT7LrkSOA,"""JBC Coffee Roasters""",,"""5821 Femrite Dr""",Madison,WI,53718,43.051038,-89.2788932,5.0,14,1,food
5237,5jF_FfjgY-A5_6QquMbu6Q,"""Julia Grace Salon""",,"""7878 Big Sky Dr""",Madison,WI,53719,43.059686942700004,-89.5196305714,4.5,22,1,beauty & spas
5238,1Mox_7Z5nsG08suxhU8BQg,"""Serene Beauty Face and Body""",,"""433 Grand Canyon Dr, Ste 4""",Madison,WI,53719,43.058753700000004,-89.49570779999999,5.0,3,1,hair removal
5347,oFVtGfwk7MyFLIhE0cEY4w,"""Ace Hardware""",,"""2540 Allen Blvd""",Middleton,WI,53562,43.1027157,-89.4873683,5.0,5,1,shopping
5351,tVrKuh92l1eGK2fXsGYzaA,"""Colectivo Coffee""",Dudgeon-Monroe,"""2530 Monroe St""",Madison,WI,53711,43.0580615,-89.42789470000001,4.0,60,1,food
5373,j2lCy073U_qYs19sBAHoyA,"""Anytime Fitness""",,"""6000 Monona Dr""",Monona,WI,53716,43.0536491,-89.32469470000001,4.0,4,1,active life
5376,s4_C3VdPw3qFlmxykXa26Q,"""Macy's""",,"""702 N Midvale Blvd""",Madison,WI,53705,43.072681,-89.45336400000001,2.5,37,1,fashion
5377,uC3qwaxsOkdJzpOc0v1Mog,"""Cafe Hollander""",,"""726 N Midvale Blvd""",Madison,WI,53705,43.072963038299996,-89.45388054870001,3.5,351,1,american (traditional)
5515,K5nMP3Iodglf6lAmxOw3WQ,"""Ben's Auto Service""",,"""225 W Main St""",Sun Prairie,WI,53590,43.1829705,-89.21623890000001,4.5,3,1,auto repair
5516,hfJe2le63VasjJDhis2O4g,"""Beans 'n Cream Coffee House""",,"""345 Cannery Sq""",Sun Prairie,WI,53590,43.182621999999995,-89.2101945,4.0,64,1,coffee & tea
5529,K-haZKqNHIJwWlFvbnn7vA,"""Starbucks""",,"""434 Gammon Pl, Ste 3""",Madison,WI,53719,43.0589848,-89.502271,2.5,41,1,coffee & tea
5570,udf0VibWPUJJMrtsGeFL-A,"""Dentistry By Design""",,"""4831 Larson Beach Rd""",McFarland,WI,53558,43.01737,-89.298817,2.0,3,1,health & medical
5572,laERkVWfXVeQcjMSNe65SA,"""The Double U""",Capitol,"""620 University Ave""",Madison,WI,53715,43.0733436,-89.3967426,3.0,12,1,pizza
5575,XFuNeVTGWZ-UOYO58NNmKg,"""The Statehouse""",Capitol,"""1001 Wisconsin Pl""",Madison,WI,53703,43.079189500000005,-89.38968630000001,3.0,80,1,nightlife
5622,UUCyYq9ghTQcCCs41cQfZQ,"""Williams-Sonoma""",,"""66 W Towne Mall, Ste C-24-28""",Madison,WI,53719,43.0572515,-89.5055108,2.5,3,1,specialty food
5734,n28_5ElTCVkhP-9BTgQGgg,"""IHOP""",Bluff Acres,"""4614 E Washington Ave""",Madison,WI,53704,43.1301419411,-89.3064034109,2.0,24,1,american (new)
5743,KhSwRL575cE4DP63io87lg,"""Center For Oral & Maxillofacial Surgery Sc""",Greenbush,"""20 S Park St, Ste 506""",Madison,WI,53715,43.0672953,-89.4014892,3.5,7,1,dentists
5796,jM6YI5V4fYM7OCA1BLKwqw,"""Taco Bell""",,"""698 S. Whitney Way""",Madison,WI,53719,43.05044,-89.47375,1.5,23,1,restaurants
5808,tY-PF5cHJAM5jeoogWd1bQ,"""It's Time Grill & Pub""",,"""608 W Verona Ave""",Verona,WI,53593,42.9887143,-89.5466119,3.5,6,1,nightlife
5895,AADytKU-UdDakNUxFLPtgA,"""Chocolate Shoppe Ice Cream""",,"""2981 Triverton Pike Dr""",Fitchburg,WI,53711,43.0161131,-89.4290497,4.5,7,1,food
5911,QjAa1btsfKXKCorXeb20Vg,"""Pizza Ranch""",,"""100 Keenan Ct""",Verona,WI,53593,42.9945036348,-89.51788870860001,4.0,16,1,pizza
5941,lTKfkTHuD0qRt6OaocI-pg,"""Grumpy Troll Pub & Brewery""",,"""105 S 2nd St""",Mount Horeb,WI,53572,43.008107,-89.738062,4.0,209,1,food
6032,DUslFMCL54COU7upZfY9Yw,"""Groomingtails Pet Salon""",Junction Ridge,"""310 Junction Rd""",Madison,WI,53717,43.067010599300005,-89.5247527957,4.0,13,1,pets
6186,c7ZTyqSG4v4ZVwK3vuDklQ,"""Ian's Pizza By The Slice""",Capitol,"""319 N Frances St""",Madison,WI,53703,43.0728935,-89.39563559999999,4.0,170,1,pizza
6206,AJpt1hDQZppJZLzXvxyWhg,"""Leisure Concepts""",Burr Oaks,"""2480 Perry St""",Madison,WI,53713,43.037544399999994,-89.3966051,4.0,4,1,hot tub & pool
6216,iNphZPJ8kjvjUvWK7zXkSA,"""Domino's Pizza""",,"""6915 University Ave""",Middleton,WI,53562,43.0969955,-89.5008508,2.5,9,1,chicken wings
6281,6hIWPCdWD180v7qoHPGFCA,"""Sleep Inn & Suites""",,"""4802 Tradewinds Pkwy""",Madison,WI,53718,43.046011,-89.29908,4.0,14,1,hotels
6341,-FZxMD-3aXsy9BI1liKqCg,"""Vip Nails & Spa""",Burr Oaks,"""2308 S Park St""",Madison,WI,53713,43.041109399999996,-89.39411949999999,3.0,8,1,nail salons
6348,Bo3O0YFcQU07IZC6PPD8CA,"""Cost Cutters""",,"""310 S Grand Ave, Market Place At Sun Prairie, Market Place At Sun Prairie""",Sun Prairie,WI,53590,43.172945,-89.265945,3.5,3,1,beauty & spas
6418,3ZAXGKcYect3kq-2Innp5A,"""America's Best Flowers""",,"""4311 Vilas Hope Rd""",Cottage Grove,WI,53527,43.0824482,-89.23972640000001,4.5,3,1,nurseries & gardening
6443,knghlcJOLD8LJkvBkncd1Q,"""Aspen Hill""",,"""1910 Hawks Ridge Dr, Ste 322""",Verona,WI,53593,43.0306684,-89.5460912,4.5,3,1,apartments
6506,U7G4VBrra439LgGBvV7dcg,"""The Lash Loft""",,"""2317 International Ln, Ste 212""",Madison,WI,53704,43.1236009,-89.350381,4.5,14,1,eyelash service
6512,0gxvvmpxi240US8wBzsEnA,"""Mortgage Statz""",Stone Meadows,"""6226 Jeffers Dr""",Madison,WI,53719,43.013639000000005,-89.490266,5.0,3,1,mortgage brokers
6517,XSpEeRqe1CeIBrDoC-wEzg,"""Library Mall""",Capitol,"""728 State St""",Madison,WI,53706,43.0753052127,-89.3979099407,4.5,7,1,food trucks
6548,ndBHxi3caAMQFoClyACWbw,"""Lumber Liquidators""",,"""2255 McCoy Rd""",Sun Prairie,WI,53590,43.173387,-89.2514702,4.0,9,1,home services
6604,DvkW3_nzaUH7LhLIfpASBw,"""Conant Automotive""",,"""1324 Hwy 51-138""",Stoughton,WI,53589,42.9186695,-89.2363846,5.0,5,1,auto repair
6658,30VTdCKNhWGhAZofJBI-5A,"""Union Cab of Madison""",Emerson East,"""2458 Pennsylvania Ave""",Madison,WI,53704,43.10565,-89.358775,3.5,52,1,local services
6671,4bAbzHMqwwdsNAki0O6UCw,"""Summit Credit Union""",Capitol,"""670 W Washington Ave""",Madison,WI,53703,43.0678385,-89.3958483,3.0,4,1,banks & credit unions
6700,AbDAfqF1oKe90bXq_cGQaQ,"""All-American Liquor-Video-Tan""",,"""2543 Main St""",Cross Plains,WI,53528,43.11097,-89.642706,3.5,3,1,beer
6726,ZlzaWeCfbQ3IZB0_lC4rzg,"""Country Inn & Suites by Carlson""",,"""6275 Nesbitt Rd""",Fitchburg,WI,53719,43.00870820000001,-89.4803243,2.5,12,1,hotels & travel
6794,i6sWTnntIFMrQ-ybnmsoOw,"""Fisher King Winery""",,"""1105 Laser St""",Verona,WI,53593,42.97381,-89.505746,3.5,24,1,wineries
6938,rr-8WQv7TWFP3c83ypc4Cg,"""Bridges Golf Course""",Carpenter-Ridgeway,"""2702 Shopko Dr""",Madison,WI,53704,43.111405,-89.34716359999999,3.5,15,1,golf
6989,WzAWk5L1Rxf6u-ADxKTm_g,"""Muse Independent Styling""",Capitol,"""520 University Ave""",Madison,WI,53703,43.07342620000001,-89.39502420000001,4.5,32,1,hair salons
7009,UkfyZevcq5jmjNWMbLb1OQ,"""Chocolate Shoppe Ice Cream""",Westmorland,"""555 S Midvale Blvd""",Madison,WI,53711,43.054623600000006,-89.4508969,3.5,25,1,ice cream & frozen yogurt
7042,2YouuAaGpZmNctof7CF5KQ,"""Graduate Hotel""",Capitol,"""601 Langdon St""",Madison,WI,53703,43.075534600000005,-89.39560759999999,3.0,34,1,event planning & services
7180,WwfnKubgavD9zez60B_YMg,"""Nourish Massage & Skin Care""",Williamson - Marquette,"""111 S First St, Ste 106""",Madison,WI,53704,43.0912308,-89.3578354,5.0,5,1,massage
7205,yXKJ6NxfX3LLh6tTho1-zQ,"""LensCrafters""",,"""29 E Towne Mall""",Madison,WI,53704,43.124733,-89.305589,3.5,9,1,health & medical
7237,jJCFQSRtMR25WFpxL76z3A,"""New Balance-Madison""",,"""702 N Midvale Blvd""",Madison,WI,53705,43.0733473,-89.45303320000001,2.5,3,1,shopping
7240,9XI0qxv0rSSj3WExSpTsdw,"""Beltline Self Storage""",,"""401 W Beltline Hwy""",Madison,WI,53713,43.035825,-89.390364,3.5,3,1,self storage
7303,UFxBealJ7NTLHDsotb7fBw,"""Blue River Chiropractic""",Junction Ridge,"""346 Junction Rd""",Madison,WI,53717,43.0671212,-89.5252181,4.5,6,1,chiropractors
7351,cRx3YlYMEp42Dlo347vC1g,"""All Stop Deforest""",,"""4905 County Hwy V""",De Forest,WI,53532,43.2503105,-89.3747347,2.0,4,1,pizza
7533,gNeiLxkopO1FgN4mjDESsA,"""Tuvalu Coffehouse & Gallery""",,"""300 S Main St""",Verona,WI,53593,42.988108700000005,-89.5337374,4.0,44,1,shopping
7573,EwHQB90WIziBlO3J_jWqKA,"""Legacy House Imports""",Mayfair Park,"""4221 Lien Rd""",Madison,WI,53704,43.1205952326,-89.31103706360001,4.5,5,1,food
7594,gLS19j6vFnnQe1ikEeWtxg,"""Hilldale Barber Shop""",,"""726 N Midvale Blvd""",Madison,WI,53705,43.0733473,-89.45303320000001,5.0,5,1,beauty & spas
7620,duG7f4gq2hS-QW50s-g4zA,"""Chipotle Mexican Grill""",Bluff Acres,"""4628 E Washington Ave""",Madison,WI,53704,43.130444583199996,-89.305695506,3.5,34,1,fast food
7628,v2zaG6Ttb0l9SSCyco4vog,"""Rebecca Lynn Studio""",Starkweather - Yahar,"""2632 Milwaukee St""",Madison,WI,53704,43.10033,-89.347562,4.5,16,1,hair removal
7642,awJCJVnaVWtBg8eXGmUjSg,"""Bombay Bazaar""",,"""753 S Gammon Rd""",Madison,WI,53719,43.0478829,-89.50253570000001,4.0,9,1,international grocery
7708,UMpGq0Ae7wt_xCLZYQ7MZA,"""Chase Bank""",Capitol,"""22 E Mifflin St""",Madison,WI,53703,43.0760937401,-89.3845177417,3.5,4,1,financial services
7748,hCWdXke7CitOaAGUwYr_Pg,"""Kids Express Learning Center""",,"""3276 High Point Rd""",Madison,WI,53719,43.0346166,-89.5178667,4.0,5,1,child care & day care
7869,PpuTAgDIgBQpbiInVTwWpA,"""The Rock Agency""",,"""6312 Monona Dr""",Madison,WI,53716,43.04972720000001,-89.32449940000001,3.5,3,1,talent agencies
7946,kG7EJt0HA8g76hC-DJLOYg,"""Maven Hair Studio""",,"""6661 University Ave, Ste 107""",Middleton,WI,53562,43.0966434,-89.4972924,5.0,6,1,nail salons
8040,jVad7Dkz-t4Um74KIXPBlg,"""J L Richard's Prime Meats & Deli""",,"""668 Janesville St""",Oregon,WI,53575,42.919917299999994,-89.37687509999999,3.5,10,1,caterers
8048,tYaTGOGwGZbajhnijwd8Pg,"""The UPS Store""",,"""6516 Monona Dr""",Monona,WI,53716,43.047022596000005,-89.3244957179,3.5,3,1,notaries
8126,TvhpG74DvdoF4MA0vLlOLw,"""Buck's Pizza""",Lake Edge,"""219 Cottage Grove Rd""",Madison,WI,53716,43.0836891,-89.3225822,4.0,22,1,restaurants
8221,Y_wVqdHHkmfxdaHGOPffqQ,"""Kato's Cajun""",,"""66 E Towne Mall""",Madison,WI,53704,43.125152299999996,-89.3057293,2.5,3,1,cajun/creole
8261,VbRT8CJlnCO9_rd0zW-rUw,"""Willy Street Pub & Grill""",Williamson - Marquette,"""852 Williamson St""",Madison,WI,53703,43.079507,-89.370069,3.5,18,1,nightlife
8262,CgluL8U3ZuUeoFUWZmC_pQ,"""Midwest Solar Power""",Wisconsin Co-Op Housing,"""405 Bordner Dr""",Madison,WI,53705,43.072355,-89.47948199999999,5.0,3,1,home services
8282,tArah2uAaJC9HQhu94PxcQ,"""H.J. Pertzborn Plumbing & Fire Protection""",,"""802 John Nolen Dr""",Madison,WI,53713,43.0465007,-89.371965,4.0,11,1,shopping
8356,6zZDTZ4ZZEYfN268iPz0uQ,"""RED""",Capitol,"""316 West Washington Ave, Ste 100""",Madison,WI,53703,43.07284,-89.388113,4.0,117,1,bars
8401,DhMshA4a0t5wlOq7u0RiMw,"""Subway""",,"""7011 Watts Rd""",Madison,WI,53719,43.0498188,-89.50422259999999,2.0,5,1,restaurants
8407,FjyZX8MwtveCowW0TR11dg,"""The Edgewater""",Capitol,"""1001 Wisconsin Pl""",Madison,WI,53703,43.0790917,-89.3894405,3.5,94,1,hotels
8426,BxXKmfXQRz3XomV0HzpfFg,"""Springers""",,"""3097 Sunnyside St""",Stoughton,WI,53589,42.979387,-89.2437829,3.5,23,1,restaurants
8521,wfsCX4M-uf_l-hQA1sSWyQ,"""M-N-M's Coffeehouse""",,"""509 W Main St""",Waunakee,WI,53597,43.192395,-89.463177,4.5,30,1,ice cream & frozen yogurt
8585,uqRxX0lhD3mSwrhEruRK8g,"""Gail Ambrosius Chocolatier""",Schenk - Atwood,"""2083 Atwood Ave""",Madison,WI,53704,43.0925831,-89.352478,4.5,64,1,food
8624,qlYEn2ANcY-x-2IwgOD91g,"""Willy Street Co-Op""",,"""6825 University Ave""",Middleton,WI,53562,43.0966258191,-89.5003504392,4.0,42,1,food
8625,K5uH4lv6-LN_Y4S27S4oyQ,"""Core Health & Fitness""",,"""2248 Deming Way, Ste 100""",Middleton,WI,53562,43.014759999999995,-89.5021,5.0,3,1,trainers
8722,NRLWKDezQf6D-XrGDrMG8A,"""Top Hat Fireplace & Chimney Specialists""",,"""5117 Verona Rd""",Fitchburg,WI,53711,43.025772100000005,-89.46565290000001,3.0,7,1,home services
8738,Tk79j0dMuCDF24NhXSeIfg,"""Fresh Madison Market""",Capitol,"""703 University Ave""",Madison,WI,53715,43.0730759,-89.3976406,3.5,48,1,specialty food
8762,kDCmjSgYGn8MbQsnO5UJnA,"""Nau-Ti-Gal""",,"""5360 Westport Rd""",Madison,WI,53704,43.1501998757,-89.4041699011,2.5,73,1,seafood
8789,F8FMytF8zLCnWYY4IXgmRQ,"""Das Mechanic""",,"""5381 Maly Rd""",Sun Prairie,WI,53590,43.142466999999996,-89.262504,5.0,5,1,auto repair
8790,UrbRd2Ixu__uFMVVR5vwEw,"""Jimmy John's""",,"""21 Tower Dr""",Sun Prairie,WI,53590,43.1982824,-89.2119398,3.5,3,1,sandwiches
8826,ddfrEPt-ohYdcrgrg8WhIA,"""Goodman Jewish Community Campus""",,"""2884 Timber Ln""",Verona,WI,53593,43.0143082,-89.5927543,5.0,3,1,community centers
8836,E9fhAPEnwiKkH85gmuYbdw,"""Erbert and Gerbert's""",,"""900 Windsor St""",Sun Prairie,WI,53590,43.187902,-89.227908,3.5,19,1,fast food
8967,rH08YFSHuFXultyf0lQ3NA,"""SolEscape Healing Arts""",Schenk - Atwood,"""2007 Atwood Ave""",Madison,WI,53704,43.0919464,-89.3550493,5.0,24,1,massage
9100,ZawXVsQABnIn_sIQ75ktWA,"""Cardinal Heating & Air Conditioning""",,"""3361 Brooks Dr""",Sun Prairie,WI,53590,43.168194,-89.26072099999999,5.0,7,1,home services
9141,28wbO7znGRmBFNswTqaVFQ,"""Baymont Inn And Suites Waunakee""",,"""904 E. Main St.""",Waunakee,WI,53597,43.191088,-89.43530729999999,1.0,8,1,hotels & travel
9202,14GKKK3sbz7XTY0TvlUwPQ,"""Christine K Designs""",,"""215 Angell St""",Sun Prairie,WI,53590,43.183401,-89.212281,4.0,3,1,sewing & alterations
9216,hJrUUuMQj33gamnVOpyAfQ,"""Comfort Suites""",,"""1253 John Q Hammons Dr""",Madison,WI,53717,43.085606,-89.52304699999999,3.5,11,1,hotels & travel
9275,LxCiZzITtwOwriTYGzZ4Jg,"""Anytime Fitness""",Schenk - Atwood,"""2045 Atwood Ave""",Madison,WI,53704,43.092071399999995,-89.3535202,3.5,4,1,fitness & instruction
9321,ZfjyA4ACFKCk7KlzwlXodQ,"""Stoughton Tire & Auto Repair""",,"""801 W Main St""",Stoughton,WI,53589,42.916576899999995,-89.229219,2.5,3,1,auto repair
9358,BhY4mXyhn7KQSvyPeHs7tA,"""Overhead Door Company of Madison""",,"""917 Watson Ave""",Madison,WI,53713,43.0276703,-89.398565,2.0,6,1,garage door services
9530,apd2-HPY6DvuFcAfQjtcbw,"""Monroe Street Family Dental""",Dudgeon-Monroe,"""2702 Monroe St""",Madison,WI,53711,43.057202000000004,-89.42923309999999,4.5,17,1,pediatric dentists
9578,NxJijlKM_MCLG-tOsEqWXg,"""Kappel's CLOCK SHOP""",,"""2250 Sherman Ave""",Madison,WI,53704,43.1028965,-89.3645999,3.5,6,1,local services
9632,-tUzC36oTD0C0a7v49PGOQ,"""Pipefitter""",Capitol,"""520 State St""",Madison,WI,53703,43.0750602,-89.3940325,5.0,12,1,home decor
9659,GhsjizVkrRDiIrYQP88bag,"""Outpost Bar & Grill""",,"""227 S Main St""",Cottage Grove,WI,53527,43.0755979,-89.1999565,5.0,4,1,restaurants
9670,C16dsL_IEOb5UzRWYhxiKw,"""Grand China Restaurant""",,"""2608 Allen Blvd""",Middleton,WI,53562,43.1035561,-89.4864809,4.0,16,1,restaurants
9789,5Y71CQYj1PTw9w0c0YsxTA,"""VOM FASS""",,"""3248 University Ave""",Madison,WI,53705,43.075625099999996,-89.4429622,4.5,27,1,food
9794,3-HFGxmbzSax-NySJ_LzDg,"""VIP""",,"""6718-6722 Odana Rd""",Madison,WI,53719,43.057108899999996,-89.49835999999999,3.5,173,1,sushi bars
9836,eR11ntkmL5xlpg-ptOTtTA,"""Death's Door Spirits""",,"""2220 Eagle Dr""",Middleton,WI,53562,43.099963,-89.528357,4.5,4,1,distilleries
9947,vs0dLMhvqhEr6ej470u0aw,"""Odana Tire & Service Center""",,"""517 S Yellowstone Dr""",Madison,WI,53719,43.05584,-89.4925,5.0,8,1,tires
9976,J6PC8n6ek2pQtjC_cqlUzw,"""Supercuts""",,"""2860 University Ave, University Station Shop Ctr""",Madison,WI,53705,43.075362,-89.438257,4.0,4,1,shopping
9993,rWTC3Hg5DKoQ_dTrcuSJgw,"""Sacred Feather""",Capitol,"""417 State St""",Madison,WI,53703,43.07481,-89.39248979999999,3.5,7,1,accessories
10004,KaxistV73E8mvhhbBLJxfg,"""Oregon Veterinary Clinic""",,"""1145 Park St""",Oregon,WI,53575,42.916211,-89.3679387,4.5,8,1,pets
10029,7OKQ4ENVfPfxtDqFOG7x0g,"""A8 China""",Capitol,"""608 University Ave""",Madison,WI,53715,43.0734206,-89.39615970000001,2.5,34,1,restaurants
10063,q0x1YYMXx9VcBVFPI5WZUA,"""Lazy Jane's Junk""",Williamson - Marquette,"""1370 Williamson St""",Madison,WI,53703,43.0854631525,-89.3614475057,4.0,6,1,home decor
10073,-OhCCE6u3Df_GBY_u6WiYA,"""Hansen & Sons""",,"""850 E Broadway""",Madison,WI,53716,43.0471179496,-89.31427494809999,2.0,4,1,masonry/concrete
10107,PhFsl1X2jl8hQexp-MmWPA,"""Alphagraphics""",Capitol,"""221 King Street""",Madison,WI,53703,43.0744995,-89.37962840000002,5.0,8,1,printing services
10120,7mjfLQctbrHXWMsxGszQlQ,"""Star Liquor""",Williamson - Marquette,"""1209 Williamson St""",Madison,WI,53703,43.083324299999994,-89.3638048,4.5,26,1,beer
10121,O6YLlkf0EZg8peg_4FDaRg,"""Petinary""",Williamson - Marquette,"""1014 Williamson St""",Madison,WI,53703,43.0812364,-89.3675526,4.5,13,1,veterinarians
10131,G7W2k1oyoWY8GkfWrgixRw,"""Market Square Theatres""",,"""6604 Odana Rd""",Madison,WI,53719,43.056286,-89.493674,4.0,23,1,arts & entertainment
10166,IhEk_lzQlaTTD1GamUQdmA,"""Wisconsin Management Company""",,"""4801 Tradewinds Pkwy""",Madison,WI,53718,43.044804,-89.298397,1.5,11,1,real estate agents
10170,uJ423HQp-9yKUXPkiDdYbw,"""Jimmy John's""",,"""6921 University Ave""",Middleton,WI,53562,43.0966,-89.500716,2.5,6,1,restaurants
10235,kWOPey5W6j7_mvIrTHhNeQ,"""Alt Brew""",,"""1808 Wright St""",Madison,WI,53704,43.1234584407,-89.3313479971,4.5,18,1,breweries
10241,6Tzc2QVpjeTD-GoTmG8LXg,"""Abner Boiler & Heating Company""",,"""""",Fitchburg,WI,53575,43.0019187927,-89.4058227539,3.5,3,1,home services
10255,hqmMDiC0ayFUc0oTrTGLuw,"""USPS""",Capitol,"""441 N Lake St""",Madison,WI,53715,43.074504299999994,-89.397269,3.0,9,1,public services & government
10311,t4avMHpFQvLc_VQo7qtIcQ,"""U.S. Bank""",,"""402 Gammon Pl""",Madison,WI,53719,43.060247,-89.50223609999999,2.0,3,1,financial services
10328,wX8btbqgyFh0yHgmyR8ovA,"""Monsoon Siam""",Schenk - Atwood,"""2045 Atwood Ave""",Madison,WI,53704,43.092071399999995,-89.3535202,4.0,142,1,thai
10344,3RJRuvmv06DwEj6g89G2lw,"""J.Jill""",,"""1650 Deming Way""",Middleton,WI,53562,43.0917158,-89.5275103,1.5,3,1,shoe stores
10373,C7-d4OfZhkz2Maxbpgfrkw,"""FedEx Office Print & Ship Center""",,"""2015 Deming Way""",Middleton,WI,53562,43.0964190055,-89.523222,3.5,3,1,professional services
10387,LOARujcfx-Ty_RUlcnYspg,"""Burger King""",Starkweather - Yahar,"""2655 E Washington Ave""",Madison,WI,53704,43.101439,-89.34723199999999,1.5,28,1,fast food
10450,5YUoTimGDPbbmRfw6SJgTQ,"""China Kitchen""",,"""6608 Mineral Point Rd""",Madison,WI,53705,43.06157879999999,-89.49593730000001,3.5,15,1,chinese
10451,8vyGYpD22lrWAuN45eEAGA,"""Barefoot Remedies Massage And Wellness""",,"""6402 Odana Rd, Ste 104""",Madison,WI,53705,43.0550348,-89.4897695,5.0,3,1,nutritionists
10497,OlA7h9oOttqTALudvEUzTg,"""Gloria's Mexican Restaurant""",Junction Ridge,"""610 Junction Rd""",Madison,WI,53717,43.073255200000006,-89.5266699,4.0,65,1,mexican
10622,jz_q2_QTq_CdDbOtY2FSXg,"""Starbucks""",Sunset Village,"""3515 University Ave""",Madison,WI,53705,43.0748689,-89.44748680000001,3.0,28,1,cafes
10696,3eWqNeJ02MJ496WotGlG5w,"""Penzeys Spices""",,"""3252 University Ave""",Madison,WI,53705,43.0753051,-89.44291940000001,4.0,32,1,food
10716,UxhEJdt0iacusZP1gmNZAg,"""Belleville Ale House""",,"""7 W Main St""",Belleville,WI,53508,42.859945,-89.534453,3.5,9,1,bars
10721,ktgZ7uAI4apy-0cIpnJJtQ,"""The Joe Long Mortgage Team""",,"""200 River Pl, Ste 130""",Monona,WI,53716,43.0462821,-89.3260037,5.0,7,1,home services
10725,QFk8RyqUXw5tshD93OrXVg,"""Heartwood Tree Company""",,"""2037 Dunn Pl""",Madison,WI,53713,43.043355,-89.40903,5.0,8,1,home services
10853,jK4GzyrQv3Fxf644ixXTqg,"""Noah's Ark Pet Center""",Sherman,"""1289 N Sherman Ave""",Madison,WI,53704,43.1138622,-89.36376209999999,3.5,14,1,pets
10868,LmYdgc1ShyYcL0xrZr7P8g,"""Community Care Veterinary Clinic""",Schenk - Atwood,"""2733 Atwood Ave""",Madison,WI,53704,43.093631,-89.343813,4.0,4,1,pets
10878,l498RgtiiNjvB517Q6oPBw,"""Allen Blvd Laundry""",,"""2514 Allen Blvd""",Middleton,WI,53562,43.1010025,-89.4864133,4.5,6,1,laundry services
10880,4GJ9B9IUeOYQtqfG_BYwlw,"""Wendigo""",,"""121 E Main St""",Stoughton,WI,53589,42.916511,-89.220072,4.5,100,1,american (traditional)
10901,h9ELiqDfwNktCvLEu1DDNg,"""Paul's Club""",Capitol,"""204 State St""",Madison,WI,53703,43.0748794571,-89.38833832739999,3.5,92,1,nightlife
10920,ZEL8SF4BCqYgHyDyDxEUBA,"""Schubert's Downtown Restaurant""",,"""128 E Main St""",Mount Horeb,WI,53572,43.008927,-89.73885200000001,4.0,43,1,american (traditional)
10946,3CW9q1hQgl5ibu5sglNXig,"""Russ Darrow Chrysler Jeep Dodge RAM Of Madison, Service""",High Crossing,"""3502 Lancaster Dr""",Madison,WI,53718,43.139187299999996,-89.29092920000001,2.5,3,1,automotive
10962,ZG61roUVrTZYmmavoMepWQ,"""Days Inn Stoughton WI""",,"""1124 West Main St.""",Stoughton,WI,53589,42.9169583,-89.2341152,1.5,3,1,hotels & travel
11002,VjyMpa7bB0lGtSicQn5UnQ,"""Nutzy Mutz & Crazy Catz""",Bay Creek,"""330 W Lakeside St""",Madison,WI,53715,43.0562562,-89.38815699999999,5.0,16,1,pet stores
11064,WkHVtY5voeLCvv61klhUnA,"""Arby's""",,"""4 Collins Ct""",Madison,WI,53716,43.047206,-89.305583,2.5,9,1,fast food
11095,8GBRILrJ3CO0pXWtaf-PNw,"""Gonstead Guest Cottage""",,"""602 S 2nd St""",Mount Horeb,WI,53572,43.001934999999996,-89.73902199999999,4.0,4,1,guest houses
11106,-mst4KdHEmeF3Qm0Xfouhw,"""Subway""",,"""6000 Monona Dr, Ste 100""",Madison,WI,53716,43.0539464275,-89.3249382824,2.0,5,1,sandwiches
11218,NKUcESxorix5Im-VzOIhoQ,"""Silverado Spa & Salon""",,"""101 Silverado Dr""",Stoughton,WI,53589,42.9191,-89.24565,4.0,4,1,nail salons
11261,PDdW5gDmzmIIBx381fZmxg,"""Terry's Car Care""",Capitol,"""332 W Johnson St""",Madison,WI,53703,43.0743824691,-89.39062088729999,4.0,24,1,oil change stations
11317,5LlNbfMasHHwjBrskO_TOA,"""Gsf Mortgage Corp""",,"""6441 Enterprise Ln, Ste 210""",Madison,WI,53719,43.057352,-89.491005,1.0,3,1,home services
11328,DmklcRAiIIKvdZ_ZuWITgw,"""Morgan's""",,"""8640 W Mineral Point Rd""",Cross Plains,WI,53528,43.060952,-89.655208,4.0,5,1,nightlife
11354,fQ1sYWuXtVVOFWhrC9bTrA,"""Culver's""",Nobel Park,"""1325 Northport Dr""",Madison,WI,53704,43.1341322,-89.3728554,3.0,13,1,restaurants
11371,ZoF62C_0WcE77Ugf5UJ8KQ,"""Target""",,"""750 Hilldale Way""",Madison,WI,53705,43.074705946899996,-89.4544805641,4.0,31,1,department stores
11372,BSWC7dWO6M7yzro0RxCEow,"""The Cinematheque""",Capitol,"""821 University Ave""",Madison,WI,53706,43.0726431,-89.39979759999999,5.0,4,1,cinema
11436,2YlUn3s132hNq5ueGeIiJg,"""Bonfyre American Grille""",,"""2601 W Beltline Hwy""",Madison,WI,53713,43.034735368999996,-89.42256113879999,3.5,212,1,nightlife
11475,p-H77X4vSXbOT4S1-S4gUA,"""Bliss Flow Yoga & Wellness Center""",Sunset Village,"""3527 University Ave""",Madison,WI,53705,43.0750771715,-89.4475942833,4.0,47,1,fitness & instruction
11489,mKetDgylkwFE2PgGZpa0Yw,"""Westgate Mall""",Midvale Heights Community,"""160 Westgate Mall""",Madison,WI,53711,43.0528238,-89.4718485,2.0,7,1,shopping
11589,miiptVrDH-qHT4wmI-Lk8g,"""Wendy's""",,"""633 S Gammon Rd""",Madison,WI,53719,43.051062,-89.5023902,3.5,12,1,fast food
11652,asAHqgKQtCWiBbC3XriSIQ,"""Chang Jiang""",,"""646 S Gammon Rd""",Madison,WI,53719,43.0505454,-89.50397679999999,3.5,27,1,restaurants
11720,TebP_MbMtoLx8jbYa5nkMQ,"""First Choice Dental""",,"""927 North Main St""",Verona,WI,53593,43.0012783,-89.5331691,3.0,5,1,cosmetic dentists
11838,VHYdRWV4krjQ-HWWXpN2Jw,"""Warner Park Duck Pond""",,"""2920 N Sherman Ave""",Madison,WI,53704,43.1308893475,-89.3665044685,4.0,4,1,active life
11852,GjkgXXicSJokejRge-g3xA,"""Genna's Lounge""",Capitol,"""105 W Main St""",Madison,WI,53703,43.072714899999994,-89.3844293,4.0,126,1,nightlife
11857,fjOPc4qOLd7QLCeQfJ_F2A,"""Wrench Auto Service""",,"""3113 Laura Ln""",Middleton,WI,53562,43.1084304,-89.5139729,3.5,6,1,oil change stations
11921,nWbKigQTHKXMuwsvva_rXQ,"""Kung Fu Tea""",Capitol,"""449 State St, Unit A""",Madison,WI,53703,43.0745126,-89.3933663,4.0,49,1,bakeries
12004,jTpst2--t8GzQ39BrBdNew,"""Sycamore Park - Dog Off-Leash Park""",Burke Heights,"""4517 Sycamore Park""",Madison,WI,53714,43.112621999999995,-89.3019348,4.5,7,1,active life
12009,rq9CwVtuJDhML2MTN268JA,"""Crazy Lenny's E-Bikes""",,"""6017 Odana Rd""",Madison,WI,53719,43.052975472,-89.48540991530001,4.5,19,1,bikes
12011,wEisic-u9Yj543iYzfpAhw,"""La Mestiza""",,"""6644 Odana Rd""",Madison,WI,53719,43.056038,-89.49419509999998,4.0,156,1,mexican
12029,b8IZDuZ0ikEI5rYVPAtn0g,"""Playthings""",,"""733 Hilldale Way""",Madison,WI,53705,43.0733473,-89.45303320000001,3.5,8,1,toy stores
12061,RJNAeNA-209sctUO0dmwuA,"""The Old Fashioned""",Capitol,"""23 N Pinckney St""",Madison,WI,53703,43.0761862475,-89.3837572172,4.0,1449,1,american (new)
12089,9D9VuQW6ysUacf63q-5pMA,"""Pizza Hut""",Greenbush,"""520 S Park St""",Madison,WI,53715,43.061355299999995,-89.4010849,4.0,6,1,italian
12131,2cetuQgbP1Bnzm-uMRlocQ,"""Nam's Noodle""",South Campus,"""1336 Regent St""",Madison,WI,53715,43.067977500000005,-89.40845379999999,3.5,91,1,asian fusion
12132,1ru9ZnIcSXKtD-jQoxLzNg,"""Freiburg Gastropub""",Dudgeon-Monroe,"""2616 Monroe St""",Madison,WI,53711,43.05755070000001,-89.42852959999999,4.0,103,1,restaurants
12183,Mbw6H58pyyDsr41wuqWDlg,"""Summit Credit Union""",Junction Ridge,"""645 Junction Rd""",Madison,WI,53717,43.0745333,-89.52622779999999,4.0,5,1,banks & credit unions
12244,8B4tanBgBpccBUWSEH4yLA,"""Dragon City""",,"""600 W Verona Ave""",Verona,WI,53593,42.988809,-89.545425,3.0,20,1,restaurants
12329,QJLP4Yk0kTdXOpq9bxQMOQ,"""Princeton Club""",,"""8080 Watts Rd""",Madison,WI,53719,43.0551245,-89.51912349999999,3.0,40,1,massage
12330,4ltQKpHLzZ6BhZWIResqPA,"""Vera's House of Bridals""",,"""7857 Big Sky Dr""",Madison,WI,53719,43.0589649,-89.52076120000001,4.5,68,1,shopping
12371,yvqjRBZwWtM1hV_9DraXGw,"""John S. Rogerson, M.D., S.C.""",Midvale Heights Community,"""2 Science Ct""",Madison,WI,53711,43.0602,-89.4683979,4.0,5,1,doctors
12466,8mtP3VJ8Ylvz-rEo_osWgg,"""La Michoacana""",Bluff Acres,"""4512 E Washington Ave, Ste 14""",Madison,WI,53704,43.129593,-89.309073,5.0,13,1,ice cream & frozen yogurt
12496,o6kbTXbLJImoQZpMO_97Ww,"""Four Star Video Cooperative""",Capitol,"""449 State St""",Madison,WI,53703,43.074475,-89.393396,4.5,19,1,books
12514,PxPzXqhfkMkkqg5at0SRaA,"""EarthView Yoga""",Tenney - Lapham,"""834 E Washington Ave, Ste 301""",Madison,WI,53703,43.0814608876,-89.37564831190001,5.0,9,1,yoga
12588,-k9lV696vqBt9K91mnQoCA,"""The University Book Store""",,"""454 N Midvale Blvd""",Madison,WI,53705,43.072165999999996,-89.453035,2.5,5,1,bookstores
12612,xZP5CS9EpQBL2PHYTGv7wg,"""Goodyear Auto Service Center""",Tenney - Lapham,"""608 E Washington Ave""",Madison,WI,53703,43.0791800584,-89.3786154538,3.5,13,1,automotive
12648,e1JITT5CxcrcicWNzIQ3SA,"""UW Health - Dermatology""",,"""1 S Park St, Fl 7""",Madison,WI,53715,43.067096,-89.39992190000001,4.5,3,1,health & medical
12681,JZRrAqYOUfefyhlHNKg6HA,"""Enterprise Rent-A-Car""",Emerson East,"""1864 E Washington Ave""",Madison,WI,53704,43.0921067407,-89.36148706430001,4.0,17,1,car rental
12698,QCJhuocw64BksfxqPjVCow,"""Wisconsin Union Hotel""",South Campus,"""1308 W Dayton St""",Madison,WI,53715,43.071765299999996,-89.4081342,4.0,11,1,wine bars
12808,NOH_i-FZqr5U0yX1c4dDOQ,"""The Barbershop""",Junction Ridge,"""515 Junction Rd, Ste D""",Madison,WI,53717,43.0715594,-89.5245488,3.5,53,1,barbers
13011,v0rJfFJCPes5Zqo3HHBsUg,"""Green Clock Films""",,"""5940 Seminole Centre Ct, Ste 112""",Fitchburg,WI,53711,43.0147205,-89.4533068,5.0,3,1,web design
13151,_D7rUvTYVivYBDeGL_gTVQ,"""Dairy Queen""",Rolling Meadows,"""4656 Cottage Grove Rd""",Madison,WI,53716,43.0852018,-89.301292,1.0,14,1,food
13183,O5uxvQejkvR3cUlP2pQvdQ,"""Dogtopia of Madison West""",,"""3231 Laura Ln""",Middleton,WI,53562,43.110881,-89.514082,4.5,13,1,pet services
13186,1iPZWvsSEUu-gXR4vJDXvg,"""Park Village Apartments""",Bram's Addition,"""2205 Woodview Ct""",Madison,WI,53713,43.040190700000004,-89.39250759999999,4.0,3,1,apartments
13197,JFRgv6y0Tweb4kxiuB6w0g,"""Madison Hair Designers""",Sauk Creek,"""656 N High Point Rd""",Madison,WI,53717,43.0744637,-89.5191662,4.5,11,1,waxing
13201,Nqqk6Jr_SuC1LIrFTY3s9Q,"""Monona Bait & Ice Cream""",,"""4516 Winnequah Rd""",Monona,WI,53716,43.071263,-89.333781,4.5,16,1,ice cream & frozen yogurt
13236,FR9emLMfpZy3uJYJojJFpw,"""DSW Designer Shoe Warehouse""",,"""2173 Zeier Rd""",Madison,WI,53704,43.1267547,-89.3012775,4.0,5,1,fashion
13251,xIYTia1c4IUFxIQlBItasA,"""Aztlan Mexican Grill""",,"""407 W Main St""",Mount Horeb,WI,53572,43.007059000000005,-89.746169,4.0,25,1,restaurants
13264,MQb3PUxPJKYNQOY7g9bc_A,"""Rocky Rococo Pan Style Pizza - North/East""",,"""1753 Thierer Rd""",Madison,WI,53704,43.1232835811,-89.31311221530001,2.5,13,1,italian
13279,_-EQvhO897VEgZ1vphCeoA,"""Cycle Gear""",Norman Acres,"""4104 E Washington Ave""",Madison,WI,53704,43.1251044,-89.3136537,3.5,6,1,automotive
13311,KYdtom3RyDt-3SWGwmJcQA,"""QDOBA Mexican Eats""",,"""6650 Mineral Point Rd""",Madison,WI,53705,43.0614295863,-89.4965509978,3.5,10,1,restaurants
13351,iFlr0eG_qH-cgXFhji7gbQ,"""Erin's Snug Irish Pub""",,"""4601 American Pkwy""",Madison,WI,53718,43.1486157,-89.2892764,3.5,147,1,american (traditional)
13395,tvESBMlJsaARw6hXoRCdjQ,"""Taco Bell""",,"""East Towne Mall, 228 East Towne Mall""",Madison,WI,53704,43.127819,-89.30661500000001,1.0,3,1,restaurants
13422,BXRsrjIgcuBS-yFONiXHlg,"""Living Art Aquarium""",,"""708 Gammon Rd""",Madison,WI,53719,43.0496867,-89.5032418,5.0,3,1,pet services
13460,RyQATIDS8b6jQ2yxqOQHcA,"""Trolley Pub Madison""",Capitol,"""802 Regent St""",Madison,WI,53705,43.0678281,-89.3994635,4.5,9,1,active life
13461,M4f1JtOp03-gv8xR5JtV8Q,"""Papa John's Pizza""",Stone Meadows,"""6619 McKee Rd""",Madison,WI,53719,43.0146904387,-89.4983652026,2.5,12,1,restaurants
13541,Eyg_bxcVGagA9HnRbPoDuw,"""Silly Monkeys Funky Resale""",Eken Park,"""306 N Lawn Ave""",Madison,WI,53704,43.1035061,-89.34572940000001,4.0,6,1,childrens clothing
13607,i7PG3pFaBLy9MHM_RYzKAw,"""Rising Sons""",Wexford,"""745 N High Point Rd""",Madison,WI,53717,43.076113644799996,-89.51811387309999,4.0,35,1,restaurants
13610,3kCZGONjZ8bQiLGhr7fLYQ,"""Zephyr Clean Air""",,"""360 Progress Dr""",Cottage Grove,WI,53527,43.0769575,-89.2073922,1.5,3,1,home services
13665,oPZ_3eXYOta_VfmbSjoZPQ,"""Zander Solutions""",,"""421 S Nine Mound Rd""",Verona,WI,53593,43.036291999999996,-89.566587,3.0,4,1,home services
13684,UxXWkSy6Kzgbhy5hU9gXrA,"""Falbo Bros. Pizzeria""",,"""1219 W Main St""",Sun Prairie,WI,53590,43.1988016,-89.2263304,3.5,13,1,restaurants
13700,OeM_LFsr-pPQ4Fg6V_egtw,"""Allen Centennial Gardens""",,"""620 Babcock Dr""",Madison,WI,53774,43.077582299999996,-89.4142068,4.5,8,1,active life
13734,PTTpNUjcbVEitVkJTC6Oeg,"""Tech Heroes""",,"""7410 Mineral Point Rd""",Madison,WI,53717,43.0606811,-89.5111552,5.0,19,1,mobile phone repair
13743,XAgJSBOBGw4_qqRsO60CNQ,"""Starbucks""",Capitol,"""661 State St""",Madison,WI,53703,43.07470429999999,-89.3969675,4.0,38,1,food
13744,qLYNdv7bgA7OOOKTxu0giA,"""Good Food""",Capitol,"""33 E Main St""",Madison,WI,53703,43.0740986906,-89.38282370569999,4.5,70,1,restaurants
13771,osObXOw88NO1YoSlF0JDKQ,"""Hertz Rent A Car""",Berkley Oaks,"""2101 Darwin Rd""",Madison,WI,53704,43.128567,-89.354385,1.0,3,1,hotels & travel
13831,BGXqmSCAb9a7TAPu7BuOGw,"""Lakeview Veterinary Clinic""",Dudgeon-Monroe,"""3518 Monroe St""",Madison,WI,53711,43.052562,-89.4360879,5.0,15,1,pets
13928,P8ersCaJqnL1paY9FFnZ9w,"""Burger King""",,"""822 Windsor St""",Sun Prairie,WI,53590,43.1878972,-89.2271655,1.5,27,1,burgers
13957,-aopPpQg8KOsj-jG1P44XA,"""Coyle Carpet One Floor & Home""",Capitol View Heights,"""250 W Beltline Hwy""",Madison,WI,53713,43.040207826999996,-89.38100337559999,2.5,3,1,home services
13989,3QGcupWVaYsFJyL1gDt6kA,"""Einstein Bros Bagels""",Regent,"""2701 University Ave""",Madison,WI,53705,43.0731092,-89.4344944,3.5,24,1,bagels
14036,npcnlBIiHvev2WUJpAezpw,"""Doll Eyes Lashes""",,"""6316 Monona Dr""",Madison,WI,53716,43.049544899999994,-89.32479570000001,3.5,9,1,beauty & spas
14107,UPoXHKghsC1BNQZoYUOgtQ,"""Dog's Best Friend Training""",,"""""",Madison,WI,53719,43.0282084,-89.5214505,4.0,10,1,pet sitting
14183,Uf6H1fwOFlBc-lN6BYKVwA,"""L.A. Tan""",,"""2055 Mccoy Rd""",Sun Prairie,WI,53590,43.17578220000001,-89.24702579999999,3.5,3,1,tanning
14267,EqORW7DevwKmWqLTwzuZfQ,"""Forever Yours Jewelry""",,"""2828 Prairie Lakes Dr, Ste 102""",Sun Prairie,WI,53590,43.167088,-89.27006999999999,5.0,3,1,jewelry
14331,PmCxlM9lF-vk5cEAMpG4_g,"""Slumberland Furniture""",,"""6702 Seybold Rd""",Madison,WI,53719,43.0524248,-89.4985308,2.5,9,1,furniture stores
14353,gdpWp6LCb2AVugVIV1Vccg,"""Lynch Auto Body""",Schenk - Atwood,"""2305 Atwood Ave""",Madison,WI,53704,43.093234,-89.348054,5.0,6,1,auto glass services
14391,mOjwSyMNjDwP5X6smYmVMA,"""Epic""",,"""1979 Milky Way""",Verona,WI,53593,42.994856240299995,-89.5666381693,5.0,38,1,computers
14393,N2j-KO-morXY6RjwAWxB9Q,"""Ecco Salon""",,"""5500 E Cheryl Pkwy, Ste 120""",Fitchburg,WI,53711,43.0225249023,-89.41649731780001,4.0,20,1,waxing
14417,3dymEGR4-tTt8eHnzuxhhQ,"""Party Port""",,"""2901 University Ave""",Madison,WI,53705,43.0747312,-89.43955190000001,3.0,5,1,beer
14554,DQMaUSbKsRtB5lJD3egqxQ,"""Wah Kee Wonton Noodle""",Williamson - Marquette,"""600 Williamson St, Ste E""",Madison,WI,53703,43.077067799999995,-89.3744,3.5,144,1,chinese
14730,-jZ1TrvY56HFqmxjbpcU2A,"""Gotham Bagels""",Capitol,"""112 E Mifflin St""",Madison,WI,53704,43.0769221065,-89.3835302639,3.5,156,1,food
14840,mD_4IZ9DGkprlisZQkDmdQ,"""iCandy Graphics & Web Design""",Williamson - Marquette,"""2002 Atwood, Ste 210""",Madison,WI,53704,43.092265000000005,-89.3547136,5.0,4,1,signmaking
14915,6fladDkDMRMWA_MNf_O3oA,"""Rose Run Kennels""",,"""2540 County Rd Mn""",Cottage Grove,WI,53527,43.0206877201,-89.2059480383,5.0,3,1,pet groomers
14957,JubiY4ZOhaOwgcC1O0U67g,"""St. Mary's Hospital""",Greenbush,"""700 S Park St""",Madison,WI,53715,43.059273,-89.401513,4.0,9,1,health & medical
14982,MBE4nCQIhA7ZYwe3Q8J8zg,"""A+ Nails""",,"""7009 Watts Rd""",Madison,WI,53719,43.0500895,-89.50354,3.5,9,1,beauty & spas
14993,2vz3U82Sf8GgXppyjGSdbg,"""Oaks Golf Course""",,"""4740 Pierceville Rd""",Cottage Grove,WI,53527,43.1125578,-89.1718365,4.5,5,1,active life
15006,8bPx_nu6cMFubvb-xn7xQQ,"""Pure Barre - Madison Hilldale""",,"""702 N Midvale Blvd""",Madison,WI,53705,43.0733473,-89.45303320000001,5.0,10,1,active life
15071,WeazUqmGuzgkGz7pBcDxcg,"""Northside Automotive Services""",,"""4282 Acker Rd""",Madison,WI,53704,43.167553000000005,-89.329094,4.5,3,1,auto repair
15076,kf6nKMhifgfL0sYv71drQw,"""A1 Furniture & Mattress""",,"""1702 W Beltline Hwy""",Madison,WI,53713,43.035571000000004,-89.410718,3.0,6,1,mattresses
15097,yhQUoRWpCBzG670O3G2Xqg,"""Burnie's Rock Shop""",Tenney - Lapham,"""901 E Johnson St""",Madison,WI,53703,43.084404,-89.37585870000001,4.0,20,1,jewelry
15136,KW5qy8mKBpgd2xL_5w7Mzg,"""Topper's Pizza""",Norman Acres,"""4128 E Washington Ave""",Madison,WI,53704,43.1254222,-89.312196,2.5,19,1,pizza
15190,J37Plpy11DUWHar8iXLvWg,"""Springhaven Self Service Laundry""",,"""4519 Monona Dr""",Monona,WI,53716,43.070753,-89.32611709999999,2.0,3,1,dry cleaning & laundry
15199,vahVdHsH5HjThT0Sa2mThQ,"""Wilson's Bar""",Schenk - Atwood,"""2144 Atwood Ave""",Madison,WI,53704,43.093214,-89.350403,3.5,27,1,sandwiches
15200,HxxhrD1Pddl9bUG5VlAWPw,"""Fosdal Home Bakery""",,"""243 E Main St""",Stoughton,WI,53589,42.9164994,-89.21859609999998,4.5,42,1,food
15271,Ui8bxfDlmyTE4N7inS4uxA,"""The Flower Studio""",,"""960 W Main St""",Sun Prairie,WI,53590,43.181662100000004,-89.2289829,3.5,4,1,flowers & gifts
15272,9spHt2xrNp7WZnTs9SKJYQ,"""Mondas Family Hair Care""",,"""1035 W Main St""",Sun Prairie,WI,53590,43.1808166,-89.2296184,3.0,5,1,hair salons
15297,FzO9KspMr0-ZUsseCOSZFQ,"""Citywide Pet Clinic Inc""",,"""6009 Monona Dr""",Monona,WI,53716,43.053934000000005,-89.3260931,3.0,3,1,pets
15301,1GaQtp-ZxxIxWB3tDy7e6g,"""Diversions Scuba""",Spring Harbor,"""5504 University Ave""",Madison,WI,53705,43.0830247,-89.4754543,5.0,3,1,scuba diving
15328,8reh8dD3VasFglGhlkNlgg,"""The Maids of Madison""",Tenney - Lapham,"""""",Madison,WI,53713,43.0886011168,-89.3733342719,4.0,6,1,home services
15390,wOS6masGoY5JszRAF3goLQ,"""Habitat For Humanity Restore""",Eastmorland,"""208 Cottage Grove Rd""",Madison,WI,53716,43.0845834,-89.32361920000001,3.5,9,1,shopping
15392,Wfx3lulJt9QZt10gCytTxw,"""Red Elephant Chocolate Caf""",Capitol,"""119 State St""",Madison,WI,53703,43.074631700000005,-89.38778520000001,4.0,15,1,specialty food
15413,Rzr5s3EJVVxrvQNdQ0c9Xg,"""Stoughton Hospital""",,"""900 Ridge St""",Stoughton,WI,53589,42.920811,-89.21027590000001,3.0,4,1,rehabilitation center
15443,UFNrRzWUWcTXAcYhGbSYBA,"""Rocket Cell Phone and Computer Repair""",Capitol,"""513 State St""",Madison,WI,53715,43.0734343,-89.39645490000001,5.0,10,1,local services
15532,a9XiT_Z60rxFuboJCicqaw,"""Fields Land Rover Madison""",,"""6624 Seybold Rd""",Madison,WI,53719,43.0522758,-89.4973393,2.5,5,1,car dealers
15568,21aTleivTCU6T9RRg-TDEw,"""Cherokee Kennels""",,"""4891 Byrne Rd""",Fitchburg,WI,53575,42.970042,-89.379745,4.0,4,1,pet sitting
15580,ji011jw_q0W81HqNy3ciJw,"""Hertz Rent A Car""",,"""6514 Odana Rd""",Madison,WI,53719,43.055341,-89.49237719999999,1.5,10,1,car rental
15629,fyaURNYm4MCgTIKu64V2fA,"""Smart Motors Toyota Scion""",,"""5901 Odana Rd""",Madison,WI,53719,43.0523314,-89.4839406,4.0,47,1,hotels & travel
15633,hc81y_5FQjTiZcgqnY8vfQ,"""Pizza Hut""",Rolling Meadows,"""4762 Cottage Grove Rd""",Madison,WI,53716,43.08459570000001,-89.2995667,2.0,12,1,restaurants
15684,iy-t6CyVL2g38wPFY4ac4g,"""Pizza Hut""",,"""7440 Mineral Point Rd""",Madison,WI,53717,43.061151,-89.512235,2.0,18,1,restaurants
15720,7e1rkqyJpXNAQfcFsOQRYw,"""Windsor Breads Bakery & Coffeehouse""",,"""4446 Windsor Rd""",Windsor,WI,53598,43.216674,-89.339962,5.0,12,1,food
15726,wWpw4gbA9B6VWt85351TvA,"""Willy Street Grocery Co-Op - East""",Williamson - Marquette,"""1221 Williamson St""",Madison,WI,53703,43.0836597,-89.3627196,4.0,119,1,event planning & services
15746,zOKQsXwQMhnwl3SbmtbvpA,"""UW Credit Union""",,"""3750 University Ave""",Madison,WI,53705,43.076529,-89.451246,4.5,8,1,banks & credit unions
15789,FjJDg7ekmYGYxanzP8-efA,"""Starbucks""",Capitol,"""1 E Main St""",Madison,WI,53703,43.0739068926,-89.382702182,3.5,17,1,coffee & tea
15815,Qn2uD06olrxL_43_4G_Hqg,"""Rosati's Authentic Chicago Pizza""",,"""4933 Commercial Ave""",Madison,WI,53704,43.105556360600005,-89.2966957014,3.0,15,1,pizza
15824,-s0hj4sFpC6HEdtiMjVAIA,"""Emmerich Chiropractic Clinic, SC""",,"""6506 Normandy Ln""",Madison,WI,53719,43.057182,-89.49294990000001,4.0,4,1,vitamins & supplements
15877,Ft2lpJSeHxqNj7pWHEqIhw,"""Mermaid Car Wash""",,"""4001 E Towne Blvd""",Madison,WI,53704,43.122766999999996,-89.311909,2.0,23,1,automotive
15892,n8jTHjc_QSxWWWGC9svHyQ,"""Toys R Us""",,"""7309 W Town Way""",Madison,WI,53719,43.05425326899999,-89.50814085489999,1.5,9,1,toy stores
15903,TOjExSOIdNXYrRg6e9axNw,"""Doctor Rooter 911""",Greenbush,"""""",Madison,WI,53704,43.05923695600001,-89.400767054,2.0,3,1,plumbing
15949,3y0sUtMk5crfqcx_BqQ9TQ,"""Q5 Communications""",,"""6162 US Hwy 51""",De Forest,WI,53532,43.18405,-89.32296590000001,4.0,4,1,shopping
15974,-uhY6pq54YB1-kOVFUBPlw,"""Cork N' Bottle""",Tenney - Lapham,"""855 E Johnson St""",Madison,WI,53704,43.084213500000004,-89.3762349,4.5,16,1,food
16051,fqeHgAtcUxp2ocf_RLErkg,"""Mr. Brews Taphouse All American Burgers""",Junction Ridge,"""610 Junction Rd, Ste 107""",Madison,WI,53717,43.0733000354,-89.52668633309999,3.5,91,1,pubs
16073,v3hzdvalG_ThrmZCK7gOYg,"""Kwik Trip""",,"""2145 County Hwy Pb""",Verona,WI,53593,42.9712431,-89.5128571,3.0,4,1,food
16093,6W3dEtlQc02xCB5mhb6DTg,"""Sergenian's Floor Coverings""",,"""2801 W Beltline Hwy""",Madison,WI,53713,43.0346794,-89.42528759999999,3.5,3,1,home services
16132,znlLoeBFMmAXCm3rCAb22A,"""Sugar & Spice Eatery""",,"""317 Nora St""",Stoughton,WI,53589,42.916123,-89.232708,4.0,16,1,american (traditional)
16163,orgKKsH39yWvi4U6fL_25w,"""Valvoline Instant Oil Change""",,"""732 S Gammon Rd""",Madison,WI,53719,43.0485103,-89.5036645,3.0,10,1,oil change stations
16209,sZNiNX2KRMsGPWZl9NZqEA,"""Rockin Jump Madison""",,"""2700 Novation Pkwy""",Madison,WI,53713,43.032875,-89.383015,3.5,34,1,trampoline parks
16214,d6VYQbeTZ_WdD8Uuhh35dg,"""Tempest Oyster Bar""",Capitol,"""120 E Wilson St""",Madison,WI,53703,43.073930018599995,-89.3796241524,4.0,205,1,seafood
16252,DAxV4ntp49L_Y8EllSsYyA,"""Spherion""",,"""2601 W Beltline Hwy, Ste 500""",Madison,WI,53713,43.0345063,-89.4220279,3.5,5,1,professional services
16256,JiOAd91qsFAdjgwI1FX7bg,"""Elaagance Lashes""",Capitol,"""316 W. Washington Ave, Ste 175""",Madison,WI,53703,43.0728124139,-89.3879419127,5.0,5,1,beauty & spas
16405,xk6f1JfM3FkS5r2I7oO6pw,"""Lifetime Family Dentistry""",,"""8313 Greenway Blvd""",Middleton,WI,53562,43.0897424,-89.5253735,3.5,3,1,cosmetic dentists
16437,GzF7sbLocL-0e9o3_zPNyw,"""Willie Ty's Eatery""",,"""836 Grove St""",Sun Prairie,WI,53590,43.175442,-89.208573,3.5,43,1,american (new)
16470,GOlAgRW1FQZGTAxlksZGkQ,"""BizFilings""",,"""8040 Excelsior Dr, Ste 200""",Madison,WI,53717,43.0781735,-89.5237556,2.5,3,1,professional services
16537,fdsn08d9gxYAOtIlFeRKNA,"""The Home Depot""",,"""2425 E Springs Dr""",Madison,WI,53704,43.1323173497,-89.2953407764,3.0,20,1,home & garden
16543,_j9X7f0FHvcdtRCtA9hMBQ,"""Martin Services""",,"""3623 Rankin Rd""",McFarland,WI,53558,43.026645,-89.281181,1.5,3,1,automotive
16548,WMZq37GTuDgxZQ4M0ufNEA,"""Center For Oral and Maxillofacial Surgery""",,"""5302 Buttonwood Dr""",Madison,WI,53718,43.15117,-89.292822,4.5,3,1,dentists
16555,WoFTWkoOrciT0TEvRJcSTQ,"""The Kollege Klub""",Capitol,"""529 N Lake St""",Madison,WI,53703,43.0756224,-89.3970644,2.5,30,1,american (new)
16607,9ywCQ_csfjcIlgldImi5zA,"""Xtreme Auto Detail""",,"""6468 Lake Rd""",Windsor,WI,53598,43.201735299999996,-89.34249059999999,4.5,3,1,auto detailing
16674,U4yKODVRLbMfI3ylHYFI9g,"""Hot Topic""",,"""Towne Mall""",Madison,WI,53719,43.057089899999994,-89.5093181,3.5,3,1,accessories
16938,zYpQ8QhWL2lVp4dYDHu0ww,"""Adriana T Photography""",,"""""",Madison,WI,53705,43.07163320000001,-89.4600369,5.0,3,1,session photography
16992,l6J0AFNA9Ssd9j_Q6LwCoA,"""Jenks Service Center""",Glendale,"""2318 S Stoughton Rd""",Madison,WI,53716,43.0641479,-89.3102435,5.0,3,1,auto repair
16993,ovB8CTMCU6RTB9xTrOT_kA,"""Leia's Lunchbox""",Tenney - Lapham,"""""",Madison,WI,53703,43.0833196,-89.37247690000001,5.0,4,1,food trucks
17023,ZC7l7lVWIEp4Oa9gW8BJSQ,"""Puff Vapor""",Eken Park,"""2609 E Johnson St""",Madison,WI,53704,43.1032281214,-89.3503358802,4.5,6,1,vape shops
17175,SRSQBhUKXO9np0Xci3HttA,"""CYE: Yelp's Holiday Hayride""",,"""1156 Olin-Turville Ct""",Madison,WI,53715,43.0542534,-89.3772168,4.0,9,1,yelp events
17186,JyhD6NJ92kv1gaBdtXY6Og,"""Supercuts""",Lake Edge,"""4506 Monona Dr, Klinke Shopping Center""",Monona,WI,53716,43.070974,-89.325581,1.0,3,1,cosmetics & beauty supply
17195,oKbjeaD9RuPhsmKW5lvY5A,"""Viking Lanes""",,"""Hy 51 W""",Stoughton,WI,53589,42.916946200000005,-89.2178937,3.5,5,1,bowling
17223,upaJORRmcctUlbwMrQgtSg,"""Newport's Wooden Furnishings""",Tenney - Lapham,"""1257 E Johnson St""",Madison,WI,53703,43.089189399999995,-89.3690075,5.0,3,1,shopping
17228,1bYtt80iwckHNPJyIl4qQg,"""Oliva""",Wexford,"""751 N High Point Rd""",Madison,WI,53717,43.0759404,-89.5178922,3.5,82,1,mediterranean
17299,4RUTgaczI0nv9XJorrDaIA,"""Klinke Cleaners""",Spring Harbor,"""5441 University Ave""",Madison,WI,53705,43.0817539,-89.475263,1.5,9,1,laundry services
17400,UX-Orw51duAbZVzg02UFWA,"""The Monticello Apartments""",,"""5015 Sheboygan Ave""",Madison,WI,53705,43.0725086,-89.4656066,3.5,3,1,home services
17439,p6M16PUsAviZiXtT2rJCGQ,"""Country Inn & Suites by Carlson-Madison""",,"""400 River Pl""",Monona,WI,53716,43.0457946,-89.325728,2.5,21,1,event planning & services
17467,vFESLZel1-6zbxlKYnCf3A,"""Verizon""",Capitol,"""781 University Ave""",Madison,WI,53715,43.073015399999996,-89.3982665,2.0,6,1,home services
17516,PPxR_dfUlOnp1f6V4P8Eig,"""Capital City Veterinary Clinic""",,"""3120 Edmonton Dr""",Sun Prairie,WI,53590,43.1886375,-89.2778583,3.5,8,1,veterinarians
17573,JuWPowfLhZvzrU-5P5yOsw,"""Focus Boardshop""",,"""2358 E Springs Rd""",Madison,WI,53704,43.129498999999996,-89.295505,3.5,3,1,fashion
17713,suPuGGvzwLrvL-4YkTMtvw,"""Sears Appliance Repair""",,"""43 East Towne Mallc, East Towne Mall""",Madison,WI,53704,43.123999999999995,-89.307,1.0,3,1,farming equipment
17718,JE3SRhAGqZrAzs0gMm5cIA,"""MOD Pizza""",,"""2249 Zeier Rd""",Madison,WI,53704,43.129083,-89.303678,4.0,24,1,fast food
17740,2IUU3DTG5pVh_iBK8Xno0w,"""Madison Public LIbrary - Meadowridge Branch""",Meadowood,"""5726 Raymond Rd""",Madison,WI,53711,43.031985299999995,-89.4782463,4.0,3,1,libraries
17807,MBodaRSaAp_FY3CkhfRXNQ,"""Wendy's""",Leopold,"""2858 Fish Hatchery Rd""",Fitchburg,WI,53713,43.029563700000004,-89.41118370000001,2.5,13,1,fast food
17818,oo63RXmf-XgQmWh4jqi1Cw,"""La Lingerie""",Capitol,"""640 W Washington Ave, Ste 201""",Madison,WI,53703,43.0683135,-89.3947519,5.0,8,1,lingerie
17867,E3zvCzX7gquT9srY4pUwLg,"""El Rancho Mexican Grill""",,"""819 S Park St""",Madison,WI,53715,43.0588637,-89.40007469999999,4.5,59,1,restaurants
17908,pUmECN5N94AQAe0DtptuYA,"""Burrito Drive""",Williamson - Marquette,"""310 S Brearly St""",Madison,WI,53703,43.0810278,-89.3689566,3.5,136,1,tex-mex
17944,p3mhi3IWiXFIrc_CYmJmeA,"""Familia Dental Madison East""",Starkweather - Yahar,"""3003 E Washington Ave""",Madison,WI,53704,43.1036061096,-89.3422471833,1.5,3,1,health & medical
17954,UZdrqn-eNHslx-4NUdFjzg,"""Capital City Comics""",Dudgeon-Monroe,"""1910 Monroe St, Ste 1""",Madison,WI,53711,43.064552899999995,-89.41816899999999,4.0,15,1,books
17965,JX1IyZ6PjTBgZMPPLL22QA,"""Madison Mobile DJ Service""",,"""6214 Schroeder Rd, Ste 214""",Madison,WI,53719,43.046684,-89.48781,3.5,4,1,event planning & services
18141,GL5FwQgLSnlFpxdAnuP_hw,"""Daily Scoop In Memorial Union""",Capitol,"""800 Langdon St""",Madison,WI,53706,43.0762028097,-89.39942677360001,4.5,41,1,ice cream & frozen yogurt
18189,Q8oZWpV_9dGLxeZV6Lvttw,"""Jen Dederich Photography""",Tenney - Lapham,"""""",Madison,WI,53703,43.0833196,-89.37247690000001,5.0,5,1,event photography
18200,flvyNcy0RXF--0BbbTTYcw,"""Ripp's Bar""",,"""117 E Main St""",Waunakee,WI,53597,43.192189,-89.453664,3.5,3,1,dive bars
18253,FEtwr6J4mcF1mFlxO-AlFw,"""Anunson Chiropractic""",,"""8215 Plaza Dr""",Madison,WI,53719,43.0563282,-89.5236546,3.0,4,1,chiropractors
18254,UQVpVSu0nYFko5kat26vWw,"""@ Nail & Spa""",,"""6814 Odana Rd""",Madison,WI,53719,43.057133,-89.500582,3.5,33,1,beauty & spas
18287,q1RhtgfdsCJOBZbF9RoFeQ,"""M & M Auto Body""",Eastmorland,"""3720 Milwaukee St""",Madison,WI,53714,43.0987580747,-89.3196630478,4.5,17,1,body shops
18310,HVpwpXneaCWMeEBF7H8jpQ,"""Taiwan Little Eats""",Capitol,"""320 State St""",Madison,WI,53703,43.074953799999996,-89.3907598,4.0,21,1,taiwanese
18357,FheEB0x9XtdsWZAw1pnbRg,"""L'occitane""",,"""638 N Midvale Blvd""",Madison,WI,53705,43.0728739,-89.4523554,5.0,3,1,department stores
18415,WtNwoFa8UyZkq7fh6AejVw,"""North Side Liquor""",Sherman,"""2801 N Sherman Ave""",Madison,WI,53704,43.12767,-89.36224399999999,1.0,3,1,food
18509,uQvC-6KQAJRKkhd_Ht3cBg,"""CVS Pharmacy""",Capitol,"""2 S Bedford St""",Madison,WI,53703,43.068399600000006,-89.39234040000001,3.5,9,1,shopping
18527,wXL6W2CSSokSq6JZ9k6GOw,"""East Branch YMCA""",Lake Edge,"""711 Cottage Grove Rd""",Madison,WI,53716,43.083227799999996,-89.3144489,3.0,4,1,child care & day care
18588,22f9ZuHADoykAo5ec4oaSg,"""Village Mobil Auto & Tire""",,"""501 W Main St""",Waunakee,WI,53597,43.1923074,-89.4622332,4.0,4,1,oil change stations
18669,A0fjOBIzKz2PdZ7yrgQqYw,"""Isthmus Beer and Cheese Fest""",,"""1919 Alliant Energy Center Way""",Madison,WI,53713,43.046000799999995,-89.3791322,5.0,3,1,festivals
18686,FozlTz6_fvzPd3ea6JG5tQ,"""The Annex""",South Campus,"""1206 Regent St""",Madison,WI,53715,43.067741,-89.4061325,3.0,5,1,nightlife
18699,STBMrqx1IMu8z6h_qQ1Xbg,"""Binh's Tailoring""",Faircrest,"""6142 Mineral Point Rd""",Madison,WI,53705,43.0612376,-89.4859007,3.5,12,1,sewing & alterations
18780,JUOkFsDGIAqv6gjvK5ZrEQ,"""O'reilly Auto Parts""",Hawthorne,"""3451 E Washington Ave""",Madison,WI,53704,43.113841313500004,-89.32845107770001,3.5,7,1,automotive
18786,Rn9FfZqjIU1oy8XaST9qbw,"""Black Locust Cafe""",Williamson - Marquette,"""829 E Washington Ave""",Madison,WI,53703,43.081653,-89.373548,4.5,56,1,restaurants
18841,FzcayTZfOAsIONhCvhFNEg,"""Capitol Car Cleaners""",,"""6802 Watts Rd""",Madison,WI,53719,43.0506235,-89.49992409999999,4.0,9,1,automotive
18858,NREXwT-fJgJpaGmzSndV4A,"""Anaala Salon and Spa""",,"""4506 Regent St""",Madison,WI,53705,43.069024,-89.453412,3.0,26,1,eyelash service
18863,Ucph9MH577u6j0zPK93amw,"""China Star""",,"""111 River Pl""",Monona,WI,53716,43.0474245,-89.326964,3.5,15,1,chinese
18938,zK1Bm6A-G06rkpBVgb9Haw,"""Wayne's Barber Shop""",Greenbush,"""420 S Park St""",Madison,WI,53715,43.0627416,-89.40105770000001,4.0,13,1,barbers
18950,sEA78pHMsVhvQQI8rPksUg,"""Mid Town Pub""",,"""2405 Allen Blvd""",Middleton,WI,53562,43.101485600000004,-89.4853769,4.0,65,1,nightlife
19023,3P2r-GHAabskGWgmsBqbsQ,"""Chalet Veterinary Clinic""",,"""1621 E Main St""",Stoughton,WI,53589,42.918190100000004,-89.2012496,3.5,3,1,pet sitting
19036,ppyUsjr_baAojLKyAAO1uw,"""Casetta Kitchen and Counter""",Capitol,"""222 W Washington Ave, Ste 30""",Madison,WI,53703,43.0734362651,-89.38674079260001,4.5,33,1,wine bars
19037,e98gdPo99P0tMGjNpdB5nw,"""Lake Towne Apartments""",Capitol,"""330 N Carroll St""",Madison,WI,53703,43.0762311816,-89.38853546979999,1.5,3,1,real estate
19259,v7MM9ut931b_0ZO9D0YUHg,"""Batch Bakehouse""",Williamson - Marquette,"""1402 Williamson St""",Madison,WI,53703,43.0860135,-89.3607986,4.5,143,1,coffee & tea
19294,_-SwDWMrGSnSw9wf7K6B1g,"""The Camera Company""",,"""6742 Odana Rd""",Madison,WI,53719,43.05716029999999,-89.49926590000001,3.5,19,1,photography stores & services
19359,s1JHlt7yOzUCBS2Ok_ZtEA,"""Animal Hospital of Sun Prairie""",,"""2125 McCoy Rd""",Sun Prairie,WI,53590,43.174383299999995,-89.2496859,4.0,6,1,pet sitting
19370,1EcTLweQoXJPjC-ETL_8fw,"""Falbo Bros. Pizzeria""",,"""101 River Pl""",Monona,WI,53716,43.0472713107,-89.32584285739999,3.5,18,1,italian
19436,Ug3Vx26eIrgUS5FJIPj-ng,"""Banushi's Bar and Grill""",,"""800 Nygaard St""",Stoughton,WI,53589,42.926536560100004,-89.24903869629999,4.0,41,1,nightlife
19462,IPUGrf2xuClfxfBIA020kw,"""Woodman's Market""",Eastmorland,"""3817 Milwaukee St""",Madison,WI,53714,43.096982000000004,-89.31911559999999,3.5,90,1,grocery
19499,_YUy0KbTv9hPtmvJwvQrPw,"""Pinnacle Health & Fitness""",Capitol,"""44 E Mifflin St""",Madison,WI,53703,43.076381899999994,-89.38458609999999,4.0,8,1,fitness & instruction
19515,krxRB2LJGiWvGziQ3zeX4Q,"""Canopy Tree Care""",Emerson East,"""2326 E Dayton St""",Madison,WI,53704,43.099493,-89.354078,3.0,3,1,tree services
19550,kOLyzy6L0vCJ322osZ7shA,"""Little Big Load""",Burr Oaks,"""2115 Fish Hatchery Rd""",Madison,WI,53713,43.0430097,-89.4033796,3.5,8,1,laundry services
19562,0-GxJX2Qy1o1oz-BpocbJg,"""Madison Skin Specialists""",,"""6314 Odana Rd, Ste 20""",Madison,WI,53719,43.054361,-89.488708,5.0,4,1,hair removal
19609,EtuIfFvw-8Cz_vgWr8R8Vw,"""AAA Madison W""",,"""8401 Excelsior Dr""",Madison,WI,53717,43.0797971,-89.5287749,3.5,3,1,travel services
19610,T2BDeIN9nGfo-w61N1lgqg,"""Star Nails""",,"""6309 Mckee Rd, Ste 400""",Fitchburg,WI,53719,43.014947,-89.48106999999999,5.0,5,1,nail technicians
19665,4PlrG07zZmZq9PlZy8GWfw,"""Upshift""",Tenney - Lapham,"""836 E Johnson St""",Madison,WI,53703,43.08415120000001,-89.3770597,4.5,14,1,shopping
19690,u0dcB0ow6602P2pQW823rA,"""Badger Wash-Verona""",,"""501 W Verona Ave""",Verona,WI,53593,42.988675,-89.541236,1.0,3,1,automotive
19700,3nVrbvAtlZnwt0GSI2JgSQ,"""Beyler Chiropractic East""",,"""1777 Thierer Rd""",Madison,WI,53704,43.1231066,-89.3135818,3.5,3,1,naturopathic/holistic
19716,SJDMSM-nRxMh2lpHgFCPMg,"""Pick 'n Save""",,"""3010 Cahill Main""",Fitchburg,WI,53711,43.0184765,-89.421275,4.0,3,1,grocery
19717,jEN6E2hcvbP6UNW9yN7mSw,"""The Next Generation""",,"""161 E Main St""",Stoughton,WI,53589,42.9165255,-89.2195563,3.5,9,1,thrift stores
19757,K0NuLbwC3MW2Ygkro69iAQ,"""ANiU Salon Spa""",,"""2275 Deming Way""",Middleton,WI,53562,43.0992294,-89.5187102,4.0,40,1,day spas
19768,lCWebOwMT2T5WKyA_xb8HA,"""The Red Zone Madison""",South Campus,"""1212 Regent St""",Madison,WI,53715,43.067954,-89.406295,3.0,8,1,american (traditional)
19841,OKFC1uSGAgpYl66MBgI6CA,"""Fleet Feet Sports Sun Prairie""",,"""2828 Prairie Lakes Dr, Ste 106""",Sun Prairie,WI,53590,43.1662968,-89.2664011,4.5,3,1,sporting goods
19938,2mOTYP7Fc77oIIMQglAY6A,"""Madison Modern Market""",Capitol,"""310 State St""",Madison,WI,53703,43.074962899999996,-89.39047990000002,5.0,8,1,flowers & gifts
19958,6IDeBbrpxSTXVPUv3no4hw,"""Santa Maria""",Summit Woods,"""1326 S Midvale Blvd""",Madison,WI,53711,43.037439500000005,-89.45228159999999,4.0,3,1,specialty food
19983,WacrAWdXzZywkQU-u_Qf8w,"""Akari Sushi""",,"""811 South Gammon Rd""",Madison,WI,53719,43.0473004,-89.503102,3.0,7,1,sushi bars
20150,VeHqcEfR_-v2-bSvNYFgNA,"""Sofra Family Bistro""",,"""7457 Elmwood Ave""",Middleton,WI,53562,43.0956695,-89.5108623,4.0,97,1,breakfast & brunch
20179,gKI8b30cAJES95OUsz6R2g,"""Hair Excellence""",,"""2402 Montana Ave""",Sun Prairie,WI,53590,43.1866657,-89.25812090000001,4.0,15,1,skin care
20232,4Xu3Tv79kD64Fu7aDPZ3_w,"""Ruffin' It Resort""",,"""635 Struck St""",Madison,WI,53719,43.0510182,-89.4953147,3.5,16,1,pet services
20283,Uo2DxgZzbI1_1zJXtyBmng,"""The Joint Chiropractic""",,"""728 S Gammon Rd""",Madison,WI,53719,43.048807399999994,-89.5038285,5.0,4,1,health & medical
20320,DNnyZbQGOoQ0RqBzG3VZCA,"""Cost Cutters""",,"""116 Vinburn Rd, Deforest Towne Center""",DeForest,WI,53532,43.238665999999995,-89.342373,2.0,4,1,beauty & spas
20377,GxhoDnHWvzH7nr5g3zSq4w,"""The Madison Greenhouse Store""",Williamson - Marquette,"""1354 Williamson St""",Madison,WI,53703,43.085366,-89.361876,4.0,15,1,home & garden
20424,2vzUzl31fFLHKhM6px-rbg,"""Mariners""",,"""5339 Lighthouse Bay Dr""",Madison,WI,53704,43.14880479999999,-89.40696679999999,3.5,61,1,breakfast & brunch
20442,wzAvQCDeRDraIE_-J7beQg,"""MCV Salon""",,"""351 E Main St""",Sun Prairie,WI,53590,43.183650496400006,-89.2124176025,4.0,15,1,waxing
20443,ojlWBKcQ2rheykfpHU7frQ,"""MO'Wyz Dry Cleaners""",,"""202 E Main St""",Sun Prairie,WI,53590,43.183409000000005,-89.212475,5.0,12,1,sewing & alterations
20455,C37hwsGUHn_3-il0ypeY-Q,"""Mickey's Tavern""",Williamson - Marquette,"""1524 Williamson St""",Madison,WI,53703,43.0878975,-89.35871920000001,4.0,178,1,pizza
20501,rBQhft--6faGnqSpgY_Oyw,"""On 2 the Field""",,"""55 E Towne Mall""",Madison,WI,53704,43.128031899999996,-89.30432440000001,2.5,3,1,framing
20517,KE8T-d28cygJtxUZ9JNGQQ,"""Firestone Complete Auto Care""",,"""7105 Mineral Point Rd""",Madison,WI,53717,43.0606029,-89.5055136,2.5,19,1,auto parts & supplies
20527,1QOkUiAiucxr3ckLLK9BjA,"""Wisconsin Historical Museum""",Capitol,"""30 N Carroll St""",Madison,WI,53703,43.0744326,-89.38659720000001,4.0,12,1,museums
20862,qrlsFv6VQbYmVqCNM5W4DQ,"""Yahara Bay Distillers""",,"""6250 Nesbitt Rd""",Madison,WI,53719,43.0107499884,-89.4782700591,4.5,6,1,food
20883,wJ1OsAyeBKmBSVENAdFDvQ,"""Brandon Eyes""",,"""6614 Mineral Point Rd""",Madison,WI,53705,43.060840999999996,-89.4960879,4.0,3,1,eyewear & opticians
20920,g3xzSAq_IcF1HeB7yd_LBg,"""Ramen Kid""",Capitol,"""461 Gilman St""",Madison,WI,53703,43.073386299999996,-89.39517559999999,3.5,96,1,sushi bars
20941,Egxy2sU_EcB_zcn1VBayZw,"""Denny's""",,"""1201 E Broadway""",Monona,WI,53716,43.0485414641,-89.311619103,3.0,12,1,breakfast & brunch
21001,AIEyiX9-yfXQgvLOtBgFgA,"""Paco's Tacos""",,"""135 W Main St""",Stoughton,WI,53589,42.9164723,-89.2208498,4.0,18,1,restaurants
21007,FSiqCBoM6LoncJZyu9UzOQ,"""Sun Tan City""",,"""7327 West Towne Way""",Madison,WI,53719,43.057472600000004,-89.51195179999999,2.0,4,1,spray tanning
21010,8B6bJQyMZ5-cJQ2k2U2HBQ,"""Organic Beauty Salon & Spa""",Eastmorland,"""1 Dempsey Rd, Ste 2""",Madison,WI,53714,43.097959741000004,-89.3171655759,4.5,10,1,eyelash service
21021,URppkLl22Bf24ExY-bayVw,"""Pink""",,"""47 West Towne Mall""",Madison,WI,53719,43.0570896,-89.5092997,2.5,3,1,lingerie
21048,F6syjtvJBI8GUZgdi0Ys-g,"""Sport Clips""",,"""2828 Prairie Lakes Dr, Ste 103""",Sun Prairie,WI,53590,43.1668240044,-89.270442429,2.5,3,1,hair salons
21065,CxoxhajARYUm6ld47Rvb5Q,"""Madison Buyer Agency""",South Campus,"""""",Madison,WI,,43.07305170000001,-89.4012302,4.0,4,1,real estate services
21070,PnB6rq9YLiV-VTcDUBWlPQ,"""Kelly Nails""",Westhaven Trails,"""3183 Muir Field Rd""",Madison,WI,53719,43.0159231,-89.51144120000001,4.0,14,1,nail salons
21090,V4iXoYjlj3NDzvJIM_6bCg,"""Nicki Handel Photography""",,"""""",Sun Prairie,WI,53590,43.1836046,-89.2137254,5.0,3,1,event photography
21310,2zojkThUgg2dI58ebycfEA,"""Sally Beauty Supply""",,"""2029 Zeier Rd""",Madison,WI,53704,43.127055299999995,-89.2980676,2.5,3,1,shopping
21417,B6fNe0iZsQgkTkobDWJ4Cg,"""Nutrition Shack""",,"""6007B Monona Dr""",Monona,WI,53716,43.054455499999996,-89.325946,4.5,3,1,food
21441,XMEGoJVtQ6EgVox1yTsO8w,"""Perkins Restaurant & Bakery""",Bluff Acres,"""4863 Hayes Rd""",Madison,WI,53704,43.1358953975,-89.29944857950001,3.0,22,1,american (new)
21496,LjD11Lns1GHAGf3E1XOUnA,"""U.S. Cellular Authorized Agent - Premier Locations""",,"""115 E Broadway Ave""",Monona,WI,53716,43.048327,-89.32349,2.5,6,1,shopping
21575,QI-CI9wWRxtw60_aQK1BpA,"""KJ's Curry Bowl""",,"""7005 Tree Ln""",Madison,WI,53717,43.065377399999996,-89.50304200000001,4.0,70,1,sri lankan
21581,ap3-QAjqVPl69nPKjAkkdg,"""Felly's Flowers Garden Center""",,"""6353 Nesbitt Rd""",Fitchburg,WI,53719,43.0064193,-89.48533420000001,4.0,8,1,flowers & gifts
21672,q-VjnkX18yJ6WJG8Mudg_w,"""The Barre Code Madison""",Capitol,"""316 W Washington Ave, Ste 125""",Madison,WI,53703,43.07284,-89.388113,5.0,8,1,gyms
21731,cLxryOkWIMjM1sXAIddZPw,"""The Tile Shop""",,"""2328 E Springs Dr""",Madison,WI,53704,43.12871989999999,-89.2980396,4.0,6,1,flooring
21760,19rOnAU80me4-fwwJ-JcdQ,"""United Rentals""",Burr Oaks,"""1018 Ann St""",Madison,WI,53713,43.035550799999996,-89.400875,1.0,3,1,truck rental
21770,F3DszjZMECUNgoJd0DxLtg,"""Piece of Cake Consulting, LLC""",,"""""",Madison,WI,53704,43.143814299999995,-89.3511495,5.0,6,1,wedding planning
21806,6keyv1LcbzdD8MCrRaA0nQ,"""Outback Steakhouse""",Junction Ridge,"""279 Junction Rd""",Madison,WI,53717,43.065881700000006,-89.52396829999999,2.5,57,1,restaurants
21816,dPu4i7Yt_4WfEZTIL-bYCA,"""La Coppa Gelato Cafe""",,"""138 W Towne Mall""",Madison,WI,53719,43.0570896,-89.5092997,1.5,3,1,coffee & tea
21821,aLf_bFRNxxGdte8GrIAN4g,"""Der Rathskeller""",Capitol,"""800 Langdon St""",Madison,WI,53706,43.0763553472,-89.3999987793,4.0,29,1,nightlife
21835,ou3C2Cnot1gitNoQIu5Uag,"""Walgreens""",,"""3700 University Ave""",Madison,WI,53705,43.0758989,-89.45057259999999,2.5,10,1,food
21837,hTeEouiPuF8QhcKRm-YsjA,"""The Joint Chiropractic""",,"""6317 Mckee Rd, Ste 400""",Fitchburg,WI,53719,43.0154059,-89.4815517,4.5,5,1,health & medical
21950,yHCP87sOwVPKIouHB_1gIw,"""Veridian Homes""",Moorland - Rimrock,"""6801 S Towne Dr""",Madison,WI,53713,43.042752,-89.355731,3.0,6,1,home services
21967,CYFfha5CmApflbpN1AhWHQ,"""Melted""",Capitol,"""100 E Main St""",Madison,WI,53704,43.074011,-89.38255799999999,3.5,19,1,restaurants
21968,Aua2Vi32K-G4LE0JCtAwiw,"""McDonald's""",Sherman,"""2901 Dryden Dr""",Madison,WI,53704,43.128479299999995,-89.358846,1.5,10,1,restaurants
22046,hGFtSo3mezqGrjuCYMnt5g,"""Nomad World Pub""",Capitol,"""418 E Wilson St""",Madison,WI,53703,43.0758,-89.37722,3.5,8,1,pubs
22221,IfKJC-1YOcDjpP2Toy0NTg,"""MOOYAH Burgers, Fries & Shakes""",,"""6309 McKee Rd, Ste 700""",Fitchburg,WI,53719,43.01488870000001,-89.4810989,4.0,92,1,ice cream & frozen yogurt
22250,EFKQ3L3XjwH31EzlTP2MWw,"""Comfort Shoppe""",Oakbridge Community,"""7960 Tree Ln""",Madison,WI,53717,43.0606182,-89.51990620000001,1.0,5,1,shopping
22296,CbR_UcWTcHh0V6WhJucdyg,"""Kesslers Diamonds On the Beltline""",Junction Ridge,"""341 Junction Rd""",Madison,WI,53717,43.0675401,-89.523551,4.0,9,1,bridal
22301,g15vs-93cq1IC2XSkZEmbA,"""Walmart""",,"""7202 Watts Rd""",Madison,WI,53719,43.051893,-89.50913059999999,2.0,26,1,food
22365,XQahCOXTaU6wO1-aIvVw_w,"""Lee's Oriental""",,"""3240 University Ave Frnt""",Madison,WI,53705,43.075518169700004,-89.44278717040001,3.0,10,1,grocery
22419,GdpBEVSZLBQYjHtKbiWMCA,"""Reptile Rapture""",,"""6308 Monona Dr""",Monona,WI,53716,43.049917,-89.324388,4.5,8,1,pet services
22445,RO63guNeBNGxpf2seBptIA,"""Yue-Wah Oriental Foods""",Burr Oaks,"""2328 S Park St""",Madison,WI,53713,43.0403541,-89.3952041,4.0,33,1,food
22455,sXul4csW1W1ZNzXdriVneA,"""Security Self Storage""",,"""510 Rolfsmeyer Dr""",Fitchburg,WI,53713,43.0312749,-89.390264,3.5,3,1,local services
22525,XoNyyfFeSALF5xyxhaRD7g,"""Woman of the Woods""",,"""1029 N Edge Trl""",Verona,WI,53593,43.002059385200006,-89.5321791619,4.5,3,1,beauty & spas
22566,fFqJDpdJFAOTMnWdaoLExQ,"""Simply Savvy""",,"""6333 University Ave, Ste 102""",Middleton,WI,53562,43.0927116,-89.4903299,4.0,14,1,shopping
22601,iG6Dqaln9X4uXy-ktltNWQ,"""Madison Children's Museum""",Capitol,"""100 N Hamilton St""",Madison,WI,53703,43.0768066,-89.3843109,4.0,61,1,childrens museums
22619,DirUQ5iFLZbmrW8M6-naHQ,"""Speedway""",,"""2500 Royal Ave""",Monona,WI,53713,43.042699382799995,-89.35351550120001,3.5,4,1,gas stations
22675,pMIr6Gd0A-EJ4sCxn1VRyw,"""Fired Up Pottery""",Lake Edge,"""4112 Monona Dr""",Madison,WI,53716,43.079196100000004,-89.3242235,4.5,10,1,education
22730,LigX8gn84ElRRdnuwGDxew,"""Klinke Cleaners""",,"""6698 Odana Rd""",Madison,WI,53719,43.056729,-89.495799,3.5,3,1,sewing & alterations
22731,v3_YJLx4qA-GljhMk3npYQ,"""Don the Car Care Man""",,"""7869 Big Sky Dr""",Madison,WI,53719,43.0594711304,-89.52060699459999,3.5,8,1,automotive
22748,oglIZt5mg2nErhpTH_AakQ,"""Cafe La Bellitalia""",Sherman,"""1026 N Sherman Ave""",Madison,WI,53704,43.111314262200004,-89.3640175794,4.0,100,1,restaurants
22749,dywaAVDfWV_gQyxzlPaPyQ,"""Hmoob Oriental Market""",Sherman,"""1197 N Sherman Ave""",Madison,WI,53704,43.112759999999994,-89.3637713,4.0,4,1,grocery
22799,x0aZLE_I1YqDobrdlTLl_A,"""Penzeys Spices""",,"""4244 E Towne Blvd""",Madison,WI,53704,43.1247040042,-89.30981900540002,4.5,7,1,specialty food
22962,XGs9hqtePoHPnVFgbejWVw,"""Dental Health Associates of Madison""",Walnut Grove,"""7017 Old Sauk Rd""",Madison,WI,53717,43.075652000000005,-89.504074,2.5,3,1,periodontists
22988,3pDVa7t5kNNAkJTPt1lOsg,"""Culvers""",,"""916 Nygaard St""",Stoughton,WI,53589,42.926530799999995,-89.2496865,4.0,12,1,burgers
22992,6HLacZd6X2tz16IP3dHMEA,"""Biergarten at Olbrich Park""",Eastmorland,"""3527 Atwood Ave""",Madison,WI,53714,43.087871299999996,-89.3304009,4.0,20,1,restaurants
22993,JifXtwlysM529-lapn8Bcw,"""Monkey Business Institute""",Schenk - Atwood,"""2916 Atwood Ave""",Madison,WI,53704,43.0940347,-89.3413282,4.5,17,1,performing arts
23013,P6Y7MDygFjrn7RPPWE4psw,"""Audre Rae Photography""",Tenney - Lapham,"""""",Madison,WI,53703,43.0833196,-89.37247690000001,5.0,5,1,photographers
23132,aGKMYhUJZBimTmvvtSNxiA,"""Fisher's Excavating Concrete & Snowplowing Service""",,"""6435 County Road M""",Verona,WI,53593,42.966043,-89.493566,2.0,3,1,na
23178,FIjAC4p1pQbRsgDwf70ZZw,"""Starbucks""",Norman Acres,"""4202 E Washington Ave""",Madison,WI,53704,43.125577,-89.3119745,4.0,31,1,coffee & tea
23227,Q3B6jCQQ0KtkqFI6-Z9WCw,"""Milio's Sandwiches""",,"""6698 Odana Rd, Se 108""",Madison,WI,53719,43.0567732,-89.49592320000001,2.5,3,1,restaurants
23228,gaIqsT8anrJNWRsEPW-R9Q,"""DC Brows & Beauty Services""",,"""6333 Odana Rd, Ste 14A""",Madison,WI,53719,43.054214,-89.49001700000001,5.0,6,1,waxing
23238,NlzU1RxfXaWF6ir-ZWfrLg,"""Madison Cuisine""",Capitol,"""785 University Ave""",Madison,WI,53715,43.073014799999996,-89.39840190000001,3.5,8,1,japanese
23406,aqCOsEhjCHVqaFPRt8MCRg,"""Liliana's Restaurant""",,"""2951 Triverton Pike""",Fitchburg,WI,53711,43.015442,-89.430002,4.0,216,1,gluten-free
23415,XL6LfacUUO3xXzz-7t41Jg,"""Wisconsin Division of Motor Vehicles - Madison East""",Westchester Gardens,"""2001 Bartillon Dr""",Madison,WI,53704,43.1256396,-89.3218893,3.5,13,1,public services & government
23549,TNV-nSWQ_pN6wrMwAgxSkA,"""Mc Govern's Club and Restaurant""",,"""820 W Main St""",Sun Prairie,WI,53590,43.182188000000004,-89.2275121,3.0,15,1,american (traditional)
23553,kf1M5SrjF2fHD1oODrU4Og,"""SnapSnackz""",Capitol,"""""",Madison,WI,53713,43.0734928927,-89.3874105048,5.0,6,1,food delivery services
23565,8S-JaDa1tPdAGaQPTUMjaw,"""Milio's Sandwiches""",,"""462 Commerce Drive, Ste. B""",Madison,WI,53719,43.0562493,-89.52317099999999,3.5,4,1,food
23640,uExk6mmyb1FwBxqc85MroA,"""The Firehouse Bar & Grill""",,"""117 S 1st St""",Mount Horeb,WI,53572,43.007606,-89.739428,3.5,3,1,restaurants
23690,uwxxr1S2cJsjs2tRkDG1Bw,"""Paul Mitchell The School Madison""",Tamarack Trails Community,"""7201 Tree Ln""",Madison,WI,53717,43.0650688,-89.50531070000001,4.0,4,1,specialty schools
23765,U6zsZhOQ9QrdrbcY4StV2Q,"""Brew & Grow""",Williamson - Marquette,"""1525 Williamson St""",Madison,WI,53703,43.0876896,-89.35825600000001,3.5,14,1,nurseries & gardening
23806,fddr1wPGJyu0XSr0d5irDQ,"""Comstock Tire & Auto""",Bram's Addition,"""2413 S Park St""",Madison,WI,53713,43.0390173,-89.3931489,4.0,6,1,automotive
23829,Rfu2hW3nRqe6eL0YbUQV7g,"""Wanda Roche & Associates""",Sauk Creek,"""""",Madison,WI,53717,43.0718858,-89.5167298,5.0,3,1,real estate agents
23850,g-kRq6VKB5ld00OOpJvaTg,"""Greenbush Bakery""",Greenbush,"""1305 Regent St""",Madison,WI,53715,43.0674367,-89.40769959999999,4.5,192,1,bakeries
23869,PZuxcxJW1y4-epEbfPh2QA,"""Three Brothers Pizza""",,"""233 Douglas Dr""",Brooklyn,WI,53521,42.8588428,-89.3691589,4.5,4,1,restaurants
23877,l7A73zaNzDyWJJ0ixc2ymw,"""Pizza Pit""",,"""330 W Main St""",Sun Prairie,WI,53590,43.183277200000006,-89.21852709999999,3.0,9,1,pizza
23882,keJURCE0Fznwggt19sJZFQ,"""Westside Community Market""",,"""4802 Sheboygan Ave""",Madison,WI,53705,43.0734251,-89.4595365,5.0,12,1,local flavor
23920,V1MTfnI-1T7lqZO-Y_qXAg,"""QDOBA Mexican Eats""",Regent,"""2741 University Ave""",Madison,WI,53705,43.073602011999995,-89.43549826739999,4.0,3,1,restaurants
23978,c1OoDfAfwiXQxNfZA_yQ2A,"""24 Hr Lockouts""",,"""""",Madison,WI,53706,43.105433399999995,-89.4269287,1.0,7,1,keys & locksmiths
24027,NVfSvSZleUTwSIeEGJnKNw,"""Red Barn Company Store""",,"""114 E Main St, Ste 107""",Waunakee,WI,53597,43.191807,-89.45348,4.5,3,1,fashion
24044,1Hhc1h5TETqtVMgasiimuQ,"""Subway""",,"""1429 W Main St""",Sun Prairie,WI,53590,43.1784005,-89.23771579999999,3.0,5,1,sandwiches
24112,s-2MJj4o8SGOKGcNjmfx6g,"""Fluno Center""",Capitol,"""601 University Ave""",Madison,WI,53715,43.072873,-89.3965423,4.0,11,1,restaurants
24117,2vDSveTk2Wyp7XoNHjK1yg,"""Laz Bistro and Bar""",,"""419 E Main St""",Stoughton,WI,53589,42.9166406,-89.215992,3.5,25,1,bistros
24158,fMLYLcaykpnwMMSTC6W9SQ,"""Solar Energy Tan""",,"""482 Commerce Dr""",Madison,WI,53719,43.0555545,-89.52320440000001,4.0,7,1,tanning
24174,TtlsQVXbvlB1Uk3whtOm5Q,"""Badger Gymnastics Academy""",,"""6901 Schroeder Rd""",Madison,WI,53711,43.0459543,-89.5015121,3.5,6,1,gymnastics
24214,6oEPYrD4lTiNKzU-QwdZ7w,"""LaBahn Arena - UW Madison""",Capitol,"""105 E Campus Mall""",Madison,WI,53715,43.0684026,-89.39918940000001,4.0,5,1,arts & entertainment
24255,AsH4XtkTWuHyHS0adF0zcQ,"""Nonn's""",,"""5952 Haase Rd""",DeForest,WI,53532,43.173885,-89.3233822,1.5,7,1,interior design
24352,_7AiEOKxaXSxPjsGNou1tA,"""Batteries Plus Bulbs""",,"""406 Commerce Dr""",Madison,WI,53719,43.0597449,-89.5258983,4.0,5,1,home services
24358,E2NdLqJ3h3YI9TdSuTf0UQ,"""Wisconsin Cutlery and Kitchen Supply""",,"""3236B University Ave""",Madison,WI,53705,43.075533633199996,-89.44278828040001,4.5,20,1,kitchen & bath
24546,W_5X_ZaFMg-Bwk2idpHhwg,"""Bakke Chiropractic Clinic""",,"""612 E Main St""",Waunakee,WI,53597,43.191414,-89.445038,4.5,3,1,chiropractors
24560,dsuXH9W3LpyT7mPzcFWslg,"""Applegate Auto""",,"""1217 Greenway Cross""",Madison,WI,53713,43.030743900000004,-89.40397,3.5,3,1,car dealers
24574,eRIgaUA3JFOxKXKH4mvshQ,"""Norske Nook Restaurant & Bakery""",,"""100 East Holum St""",DeForest,WI,53532,43.24795,-89.343562,3.0,86,1,food
24577,kEtJFcq6R1GARxNYwDjscQ,"""Escape Du Monde""",,"""5973 Executive Dr, Ste 2""",Fitchburg,WI,53719,43.01111029999999,-89.45885109999999,4.0,7,1,day spas
24617,pmHwTZej-DeA4f4hhu_fYg,"""Celebrations Entertainment""",,"""3009 Perry St""",Madison,WI,53713,43.0312513,-89.3964577,5.0,3,1,party & event planning
24671,h5ZeHDpJXHkB-Sqa5gKsQw,"""McDonald's""",,"""401 W Cottage Grove Rd""",Cottage Grove,WI,53527,43.087207,-89.209226,2.0,4,1,fast food
24842,Ioj9iiQkT3w3Bp91MvLgfQ,"""Paper Source""",,"""722 N Midvale Blvd""",Madison,WI,53705,43.074474135699994,-89.45128239690001,4.5,3,1,shopping
24848,W76Jjg2reBe_ZBO2fwWAvg,"""Vault Interiors & Design""",Schenk - Atwood,"""2000 Atwood Ave""",Madison,WI,53704,43.092353,-89.35441,4.5,4,1,home services
24856,avgWQOnKiRAoJiG4RMDeiQ,"""Burger King""",,"""810 N Main St""",Oregon,WI,53575,42.9383722,-89.3829254,2.5,6,1,burgers
24888,XtcK4mb_izIdtF9-VA2HDQ,"""Budget Bicycle Center""",South Campus,"""1230 Regent St""",Madison,WI,53715,43.0679006,-89.40676540000001,5.0,3,1,fashion
24930,ShGGqJ0ugPw9N4yL7QlO-Q,"""Fair Oaks Diner""",Starkweather - Yahar,"""44 S Fair Oaks Ave""",Madison,WI,53714,43.0985717,-89.33413709999999,2.5,14,1,restaurants
24967,kSzqjpwFfoHdXEB60iLO_Q,"""Above Average Moving""",Mayfair Park,"""1412 Parkside Dr, Ste 1230""",Madison,WI,53704,43.118066,-89.3152978,5.0,25,1,movers
24998,MdtsA9oE2aFEYLHqmKfp9w,"""Contours Lingerie""",Faircrest,"""6102 Mineral Point Rd""",Madison,WI,53705,43.0612102,-89.48508559999999,4.0,23,1,lingerie
25026,r83fWVZq4q8G6EwdtCopkg,"""Z Bella Boutique""",,"""1903 Cayuga St, Ste 101""",Middleton,WI,53562,43.096537100000006,-89.513627,5.0,5,1,womens clothing
25053,gMk_42pLYB3N0BO_vX-97A,"""Sun Prairie Public Library""",,"""1350 Linnerud Dr""",Sun Prairie,WI,53590,43.17512413,-89.23581262,5.0,6,1,public services & government
25058,wTvfaKsg7Q-n4OEF1xQhhQ,"""Stoughton Pick'n Save""",,"""1750 US Highway 51, Ste 13""",Stoughton,WI,53589,42.9196368,-89.2418275,2.0,5,1,grocery
25140,A5RWfY8lyf0R7s1wFnkCEw,"""Trees On Wheels""",,"""3290 Elvehjem Rd""",Mc Farland,WI,53558,43.0065566312,-89.25610200850001,2.0,4,1,home services
25176,-h0o-BilkKaCa7HX9BOwkw,"""The Shoe Box""",,"""Hwy 14""",Black Earth,WI,53515,43.142685902299995,-89.7488245563,4.0,45,1,fashion
25218,ixQBmmpmWl6wW5D3pJdv6A,"""Audio Contractors""",,"""1015 N Main St, Ste F""",Oregon,WI,53575,42.94191,-89.38383499999999,5.0,3,1,home services
25278,OCytAjNw1jvhfEF7KU43GA,"""Perkins Restaurant & Bakery""",,"""1410 Damon Rd""",Madison,WI,53713,43.0355008815,-89.4086769067,3.0,30,1,bakeries
25323,eZkD1yUKQA6mAfBJTJPD6w,"""Little Caesars Pizza""",Starkweather - Yahar,"""2833 E Washington Ave""",Madison,WI,53704,43.1021144,-89.3447315,2.5,6,1,pizza
25388,nQ9ynltYTXuZdBB_64G5zA,"""Serenity Pet Spa""",,"""6039 Odana Rd""",Madison,WI,53719,43.053220009200004,-89.48608582700001,5.0,23,1,pet services
25443,Ff9YHvBxijzhdtYVQU09dQ,"""Hmong Legacy Market""",Burr Oaks,"""2119 Fish Hatchery Rd""",Madison,WI,53713,43.042906895,-89.4035880257,3.5,5,1,restaurants
25476,2v5lbNXlX6LCwvp4X0hGaA,"""General Heating & Air Conditioning""",,"""3002 Perry St""",Madison,WI,53713,43.031007,-89.3969085,2.5,3,1,heating & air conditioning/hvac
25518,OuYHADLTHGItMpngIgR5Mw,"""Graphite - Apple Premier Partner""",,"""4805 Voges Rd""",Madison,WI,53718,43.039903,-89.29862299999999,5.0,6,1,shopping
25552,kOlQdy2_M28XvUbMiJtuSA,"""Atwood Barber Shop""",Schenk - Atwood,"""2140 Atwood Ave""",Madison,WI,53704,43.093154,-89.3506063,4.5,13,1,barbers
25559,Giw0OL-ey7MqysdAVdkhfg,"""Hobby Lobby""",,"""2351 W Broadway""",Monona,WI,53713,43.0470321,-89.3512023,2.5,14,1,fabric stores
25588,rOVatyr80CywicUE6gfCnQ,"""House Of Brews""",,"""4539 Helgesen Dr""",Madison,WI,53718,43.0665030684,-89.30569045790001,3.5,7,1,food
25628,nO63BHPt5N7Q-ehPhgVVoA,"""A New Leaf Flowers and Gifts""",Lake Edge,"""4106 Monona Dr""",Madison,WI,53716,43.0790111,-89.3234614,3.5,3,1,event planning & services
25774,yXvyFDIdJTM0kLGSe7VYAw,"""Gaylord Catering Service""",,"""709 Atlas Ave""",Madison,WI,53714,43.0863601,-89.3094191,4.5,5,1,wedding planning
25820,fkV3KkjK2gvvc1EsF1kImQ,"""Fitchburg Cycles""",,"""2970 Cahill Main""",Fitchburg,WI,53711,43.0185836,-89.4227444,4.0,9,1,bike repair/maintenance
25832,S4mPzOP0GzaeBiNE1jNLpQ,"""Howard Johnson Madison""",Mayfair Park,"""3841 E.Washington Ave""",Madison,WI,53704,43.1198093709,-89.31806190799999,2.5,22,1,hotels
25894,zXb5pP4zMHvmusweYfr9TQ,"""McDonald's""",,"""6910 Odana Rd""",Madison,WI,53719,43.057127,-89.501621,2.5,7,1,restaurants
25896,vuYvC6XxA-yJeD5QSSDYew,"""The Meadows Apartments""",Heistand,"""401 N Thompson Dr, Apt 2""",Madison,WI,53714,43.104078200000004,-89.2993249,1.0,3,1,apartments
26017,P2qrBSLR5GXsuPEdPV3cPg,"""Aldi""",,"""8222 Watts Rd""",Madison,WI,53719,43.0561334,-89.5259384,3.5,6,1,grocery
26036,-kOAY_7PlNBzezdo6jNvqw,"""Longtable Beer Cafe""",,"""7545 Hubbard Ave""",Middleton,WI,53562,43.095516700000005,-89.51228979999999,4.0,10,1,beer bar
26075,IBxD5xo8o3FDquF1dkA31g,"""Barriques""",,"""8410 Old Sauk Rd""",Middleton,WI,53562,43.0753018738,-89.5282926888,3.5,47,1,beer
26192,LhU-XsZ2YObJnP-5uiMIjA,"""Habanero's Mexican Grill""",Sherman,"""3001 N Sherman Ave""",Madison,WI,53704,43.1297225601,-89.36273871030001,3.5,21,1,restaurants
26193,bWFXjCvfoUXINQiaIjNP9Q,"""Wiggie's""",Sherman,"""1901 Aberg Ave""",Madison,WI,53704,43.113811,-89.35870190000001,3.0,5,1,bars
26197,yO8XnZDmxnTtR03sSWVnaQ,"""Marquis Ballroom""",,"""6220 Nesbitt Rd""",Fitchburg,WI,53719,43.0116111,-89.47695440000001,2.0,3,1,restaurants
26253,IdXQueEXzu6-tRXru4-iJA,"""Essentials""",,"""215 S Main St""",Verona,WI,53593,42.9896320097,-89.5333117247,4.5,8,1,massage
26271,ccITN_H2ySDGySuqVaJRcA,"""SprintPrint""",,"""2790 S Fish Hatchery Rd""",Fitchburg,WI,53711,43.006190999999994,-89.426755,5.0,4,1,print media
26274,JfGnBe_IGDV0RZjAADp4yA,"""Yola's Cafe""",,"""494 Commerce Dr""",Madison,WI,53719,43.0554282,-89.52318220000001,3.5,79,1,restaurants
26300,Tvw-7siA6FtCSwRikb5FVA,"""Green Lantern Restaurant""",,"""4412 Siggelkow Rd""",Mc Farland,WI,53558,43.0257076757,-89.30653277260001,3.5,66,1,event planning & services
26314,GluS4YfUwiYO8dn3iBoKWg,"""Rosen Nissan of Madison""",,"""2510 W Beltline Hwy""",Madison,WI,53713,43.036491299999994,-89.4211824,3.0,3,1,automotive
26324,4X0SmWlCctb_kQLZsQi1OA,"""Forever 21""",,"""229 W Towne Mall""",Madison,WI,53719,43.056309999999996,-89.50932759999999,3.0,5,1,shopping
26346,Ofhdr1Hm3JD0ndmRNP99eg,"""U.S. Cellular""",,"""6231 Mckee Rd""",Fitchburg,WI,53719,43.015217,-89.47707700000001,1.5,3,1,shopping
26377,H3hgOl7NcAG8AKuOjVcBqQ,"""Capitol Centre Market""",Capitol,"""111 N Broom St""",Madison,WI,53703,43.0727667,-89.39016140000001,3.5,36,1,food
26449,41HH_duYwwocnXjS4mb-TQ,"""Candinas Chocolatier""",,"""2435 Old Pb""",Verona,WI,53593,42.98693529999999,-89.51503029999999,4.5,11,1,specialty food
26515,s1p0TnqY1LuVwVAn-ifeaA,"""Edible Arrangements""",,"""2850 University Ave""",Madison,WI,53705,43.0753649,-89.4378637,4.0,6,1,gift shops
26658,QfWFxmXqRGixztgaZN0gOA,"""Helbachs Coffee House""",,"""410 Donofrio Dr""",Madison,WI,53719,43.0596333,-89.5135245,4.0,80,1,sandwiches
26659,PVHC67qH2d6DonAGRxvymA,"""PaintBar Madison""",Williamson - Marquette,"""1224 Williamson St""",Madison,WI,53703,43.0837945,-89.36358349999999,5.0,17,1,paint & sip
26672,9p4pcl-VxqiNLBCuGJOPYQ,"""LSM Chiropractic""",,"""3070 Fish Hatchery Rd, Ste 2""",Fitchburg,WI,53711,43.013245500000004,-89.4273453,5.0,4,1,chiropractors
26729,qYguSw07Re442koXhdS1rw,"""1st American Pest Control""",Heistand,"""4222 Milwaukee St, Ste 4""",Madison,WI,53714,43.099219500000004,-89.3113483,3.5,3,1,home inspectors
26733,pYM5_4i-2bdcSMy2tdX96g,"""Oregon Farm Center""",,"""4636 State Road 138""",Oregon,WI,53575,42.919047,-89.36122900000001,4.5,6,1,pet stores
26813,sFJXHisNIoWF5Upmi5BbRw,"""Menards""",,"""6401 Copps Ave""",Monona,WI,53716,43.04936,-89.3123022,2.5,21,1,building supplies
26878,lJDblNKlWfjnfle9DrwMwg,"""Sun Tan City""",,"""4327 East Towne Way""",Madison,WI,53704,43.122440000000005,-89.30624499999999,2.0,13,1,spray tanning
26958,F1VasoCjLgA079A21nQIvA,"""Sondel Family Veterinary Clinic""",,"""1848 Waldorf Blvd""",Madison,WI,53719,43.0317349,-89.5268185,5.0,6,1,pets
26981,0d1REzQYsfXW2SKJEjAWUw,"""Token Creek Hot Air Balloon Company""",Tenney - Lapham,"""100 Ski Hill Rd""",Madison,WI,53703,43.0833196,-89.37247690000001,1.0,3,1,tours
27090,tyo6QzKpnUVTjXoq91FBuQ,"""Toby's Supper Club""",,"""3717 S Dutch Mill Rd""",Madison,WI,53718,43.0440001,-89.3027747,4.0,110,1,restaurants
27093,jzt9k6zoo1uHJ3P9L2DCog,"""Escape In Time""",,"""6527 Normandy Ln, Ste 203""",Madison,WI,53719,43.0572182,-89.4945702,4.5,27,1,arts & entertainment
27123,xWGFORqyVvAAuD8jQ4tXug,"""Longfellow Lofts""",Greenbush,"""1015 Mound St""",Madison,WI,53715,43.065308,-89.4026982,3.0,4,1,home services
27225,YpsMG1_Vf-rEVjl42Nw8hg,"""Milio's Sandwiches""",Regent,"""2145 Regent St""",Madison,WI,53726,43.0677216,-89.4236293,3.5,22,1,sandwiches
27254,WLYdprkoEJ6FCnTz8AyqqA,"""Glimpse LASH""",,"""1701 Deming Way, Ste 118""",Middleton,WI,53562,43.0926545,-89.52621140000001,4.5,10,1,beauty & spas
27256,GJuLpVI1MjMA25-evMjCVA,"""Subway""",,"""8315 Murphy Dr""",Middleton,WI,53562,43.0975054,-89.5242707,2.5,4,1,sandwiches
27275,jqXX6SWhYAMDRuGw2zci9A,"""Dentistry For Madison""",Capitol,"""413 W Washington Ave""",Madison,WI,53703,43.0707881,-89.389146,4.5,7,1,endodontists
27288,jMmvTnIhwpa8zA9GqUiIxg,"""Wisconsin Rottweiler Rescue""",,"""3617 S Dutch Mill Rd""",Madison,WI,53718,43.045367999999996,-89.303361,3.5,3,1,pets
27344,JEoi9ITPZM58EnZBAubijA,"""Vintage Brewing""",,"""674 S Whitney Way""",Madison,WI,53719,43.050959000000006,-89.473956,3.5,256,1,restaurants
27504,5zw_Ha4kVgAlHqP9oW-CxQ,"""Arbor Lakes at Middleton""",,"""3511 Roma Lne""",Middleton,WI,53562,43.1141138,-89.471159,1.5,5,1,real estate
27547,gmDpOYmKK6OsPmzvxzN79w,"""The Learning Shop""",,"""714 S Gammon Rd""",Madison,WI,53719,43.0493042,-89.50413420000001,5.0,6,1,toy stores
27548,pSzJfttFyCbP6Gn2E2hklA,"""Timberlake Village Apartments""",,"""7425 Timber Lake Trl""",Madison,WI,53719,43.0511001,-89.51180529999999,4.5,3,1,real estate
27643,6fj3Udp7dQlix3AubfnoaA,"""Boston Store""",,"""53 East Towne Mall""",Madison,WI,53704,43.1239025019,-89.30446367559999,2.5,13,1,cosmetics & beauty supply
27818,Md9s3Y5qWwmzawYCQ6VTDA,"""Wait Chiropractic""",Capitol,"""7 N Pickney St""",Madison,WI,53703,43.0759714,-89.3832439,5.0,3,1,chiropractors
27857,Lu11ceuxJWh3dgRaPZGbsQ,"""QDOBA Mexican Eats""",,"""4718 E Towne Blvd""",Madison,WI,53704,43.1302659456,-89.3034115434,3.0,29,1,fast food
27859,9Et2zqXA115eb5F91AKSMQ,"""Waunakee Remodeling""",,"""1001 Frank H St""",Waunakee,WI,53597,43.190828,-89.434239,3.0,3,1,home services
27875,O_hVKjR9NIfzDpyb0l_tCA,"""Best Buds Landscaping & Greenhouses""",,"""4320 Hoepker Rd""",Madison,WI,53704,43.112858,-89.36618399999999,3.5,5,1,snow removal
27910,cjFFnWEVH4F62861vJeq3g,"""Los Atlantes""",Meadowood,"""5706 Raymond Rd""",Madison,WI,53711,43.0324654597,-89.47782582159999,4.5,13,1,restaurants
27911,Iq1P8S3--gqd50xoQJxpqA,"""Bowl of Heaven""",,"""717 Hilldale Way""",Madison,WI,53705,43.0729301199,-89.4532138687,4.5,43,1,restaurants
27928,rmNTGiMG8NH31b88tUNNfw,"""The Fountain""",Capitol,"""122 State St""",Madison,WI,53703,43.075044399999996,-89.3873093,3.5,69,1,arts & entertainment
27981,UWdU4RZYNMv0rotWcgGkaQ,"""Antlers Tavern""",Waunona,"""2202 W Broadway""",Monona,WI,53713,43.04745820000001,-89.34965940000001,3.5,3,1,american (traditional)
27985,lMxgLp7dPXf4-xiWLwd3WQ,"""Ancora Coffee Roaster""",,"""4000 International Ln""",Madison,WI,53704,43.1363366539,-89.34563521940001,2.0,14,1,food
27995,chUwgMbLw3gJo7r6K94qiw,"""Henna Blossom""",Sauk Creek,"""""",Madison,WI,53717,43.0718858,-89.5167298,5.0,3,1,tattoo
28004,G0LyeGdS-etVtdhK7IXS2A,"""Comfort Inn & Suites Madison North""",,"""5025 County Hwy V""",De Forest,WI,53532,43.249921,-89.384217,4.0,12,1,event planning & services
28081,qB5m-TgJx_zeWKLLxKRfUA,"""Fraboni's Italian Specialties & Delicatessen""",Capitol,"""822 Regent St""",Madison,WI,53715,43.0678314,-89.40039250000001,3.5,30,1,italian
28111,_yXlkFVF4UWiuOUlq8Smlg,"""Yankee Classic Flooring""",,"""3536 Siggelkow Rd""",McFarland,WI,53558,43.026815,-89.274148,3.5,3,1,home services
28146,IsADZMYEJKXTtPfN9YsiBA,"""Kabul Restaurant""",Capitol,"""540 State St""",Madison,WI,53703,43.075131,-89.39444499999999,3.5,170,1,afghan
28147,6qMKpf9f-u_BmZkWiB5bJQ,"""Brooke Marie Photography""",,"""""",Madison,WI,53719,43.0282084,-89.5214505,3.5,3,1,photographers
28154,zgmslJH4f8rIJ1TKSrx3Uw,"""Fancy Nails""",Westmorland,"""515 S Midvale Blvd, Ste 3""",Madison,WI,53711,43.055060383500006,-89.4505333812,3.5,48,1,nail salons
28193,8iRfD5IizYki0F8QlAlL2g,"""Hawk's Bar & Grill""",Capitol,"""425 State St""",Madison,WI,53703,43.074609,-89.392719,3.0,66,1,nightlife
28199,EnISFI-zAZRcSIg9URyDeg,"""Timbers""",,"""208 W North St""",De Forest,WI,53532,43.253059,-89.346683,4.0,5,1,nightlife
28248,XzQSSJrZ9jN1H6yu49yxNg,"""Brunsell""",,"""4611 W Beltline Hwy""",Madison,WI,53711,43.0384315,-89.4579123,2.0,6,1,hardware stores
28261,KUfbBfmqQClxUTKGphPMuw,"""Shoo""",Capitol,"""109 State St""",Madison,WI,53703,43.07457279999999,-89.3869433,5.0,6,1,accessories
28290,5_a8VF9MQ2rkNg7GR8MGfg,"""Culver's""",,"""4700 Farwell St""",Mc Farland,WI,53558,43.013764200000004,-89.3021944,3.0,6,1,burgers
28317,k5NZCt5REh8ufZjKgEM15w,"""Monroe Street Framing""",Vilas,"""1901 Monroe St""",Madison,WI,53711,43.0643592,-89.4174401,5.0,4,1,shopping
28357,27-PyKUmKjlSoYYO-EJUJA,"""Parmenter Circle Apartments""",,"""2310 Parmenter St""",Middleton,WI,53562,43.100784600000004,-89.5121012,2.5,3,1,real estate
28359,-urPlVvPdWIfVtAZuZqkrQ,"""Schoepp Motors East""",Glendale,"""2424 S Stoughton Rd""",Madison,WI,53716,43.06304420000001,-89.31045440000001,2.5,7,1,car dealers
28361,erilrfq0TCOU5fHUqITyYA,"""Tropic Jewel""",Capitol,"""449 State St, Ste F""",Madison,WI,53703,43.074475,-89.393396,4.0,9,1,jewelry
28407,cenEs8pZINlsu1fSpzHizQ,"""QDOBA Mexican Eats""",Capitol,"""548 State St""",Madison,WI,53703,43.0750866583,-89.3946364024,3.0,26,1,event planning & services
28443,f5fOS5sPvSDu8oG5U4lHMg,"""Body Archaeology""",Capitol,"""202 State St, Ste 303""",Madison,WI,53703,43.0748907,-89.38827320000001,5.0,7,1,health & medical
28525,GVZ2AxHFdGhbFyU-XByScg,"""Hody Bar & Grill""",,"""1914 Aurora St""",Middleton,WI,53562,43.09613970000001,-89.51317540000001,2.0,21,1,arts & entertainment
28531,DQr0Awv24JVSg5eUyWoR3g,"""Residence Inn Madison East""",Bluff Acres,"""4862 Hayes Rd""",Madison,WI,53704,43.135994700000005,-89.30054100000001,3.5,11,1,hotels
28572,ZWhckK9SJPXfTvssx3_zJw,"""Hair Centre""",,"""6629 University Ave, Ste 103""",Middleton,WI,53562,43.0956546,-89.49538309999998,5.0,3,1,nail salons
28623,m9ZzN90XEU36YnoPIFzkmA,"""Cafe Maya""",,"""5501 Odana Rd""",Madison,WI,53719,43.0499145,-89.4736027,4.0,39,1,breakfast & brunch
28634,byCy8CgQVNDOp1EHNx09bw,"""Cousins Subs""",,"""5413 Monona Dr""",Monona,WI,53716,43.0604055,-89.3265756,5.0,4,1,restaurants
28660,ZCCH7gl4KgdZM86KrvDLBA,"""Butler Plaza""",Capitol,"""21 N Butler St""",Madison,WI,53703,43.0774047,-89.3816515,3.0,9,1,home services
28672,KdJDWru_xxJS7JD9SNiRtQ,"""Nonn's""",,"""7550 Graber Rd""",Middleton,WI,53562,43.117826,-89.512114,3.5,6,1,shopping
28679,vyMPeRP7ICmXV4KChC09HQ,"""The Center for Periodontics and Dental Implants""",,"""6301 University Ave""",Middleton,WI,53562,43.092178999999994,-89.490523,4.5,3,1,oral surgeons
28698,CpPJ2UKAxDLwj95-HNFPHg,"""Barriques Market""",,"""5957 McKee Rd, Ste 5""",Fitchburg,WI,53719,43.0149710513,-89.4576370192,4.0,71,1,cafes
28722,cTPdZ9Va0HCLESf5gNnXwA,"""Lucille""",Capitol,"""101 King St""",Madison,WI,53703,43.074523417200005,-89.3815466467,3.5,176,1,american (new)
28766,KUaaFFQ5ClCc2EJAHP7ZRQ,"""Smart Dental""",,"""2317 International Ln, Ste 101""",Madison,WI,53704,43.1236009,-89.350381,4.5,11,1,dentists
28772,UROWdKGa1IQ19Jk4tExvVQ,"""Culver's""",,"""7206 Mineral Point Rd""",Madison,WI,53717,43.0612025898,-89.5069122215,3.5,19,1,ice cream & frozen yogurt
28795,VBmgjfLuyjU4t2k9lIdFJA,"""Which Wich""",,"""2828 Prairie Lakes Dr, Ste 104""",Sun Prairie,WI,53590,43.1918126954,-89.2187723545,3.0,37,1,sandwiches
28876,wjQNxRQfRSK923VlZo98Eg,"""Middleton Power Center""",,"""3230 Parmenter St""",Middleton,WI,53562,43.110330600000005,-89.5103872,4.0,3,1,farming equipment
28976,RMEzxhYfpnEsWlfozit_xw,"""Ale Asylum""",Carpenter-Ridgeway,"""2002 Pankratz St""",Madison,WI,53704,43.1204993796,-89.35379177959999,4.0,236,1,food
28991,tWX7j4Qg4cXofQqmoNKH3A,"""Sir Hobo's""",,"""710 W Main St""",Sun Prairie,WI,53590,43.182326200000006,-89.2255836,3.5,33,1,restaurants
