,business_id,name,neighborhood,address,city,state,postal_code,latitude,longitude,stars,review_count,is_open,categories
1,He-G7vWjzVUysIKrfNbPUQ,"""Stephen Szabo Salon""",,"""3101 Washington Rd""",McMurray,PA,15317,40.2916853,-80.1048999,3.0,11,1,hair stylists
8,EsMcGiZaQuG1OOvL9iUFug,"""Any Given Sundae""",,"""2612 Brandt School Rd""",Wexford,PA,15090,40.6151022445,-80.0913487465,5.0,15,1,coffee & tea
13,NmZtoE3v8RdSJEczYbMT9g,"""Complete Dental Care""",,"""107 Whitaker Str""",Homestead,PA,15120,40.4014882,-79.8879161,2.0,5,1,general dentistry
51,FmGZh8ZwEnSO860_2eiYHw,"""Enterprise Rent-A-Car""",Homestead,"""908 E 8th Ave""",Homestead,PA,15120,40.409116,-79.89741500000001,3.0,4,1,hotels & travel
75,o1fTwfqN0sDFNpV1CkOPPg,"""Crazy Mocha Coffee""",Lawrenceville,"""4032 Butler St""",Pittsburgh,PA,15201,40.469294899999994,-79.9612733,3.5,16,1,restaurants
76,-nHkhiuerqmfBG3v2v9O-g,"""Bruegger's Bagels""",,"""5217 Clairton Blvd""",Pittsburgh,PA,15236,40.344193700000005,-79.970963,2.5,5,1,breakfast & brunch
98,HcEJ2YiSLX_mT3RE0hvKWQ,"""Blush""",Downtown,"""135 9th St""",Pittsburgh,PA,15222,40.444236,-79.998325,3.0,21,1,nightlife
109,shNBn6mTKxZ124yPC_H02Q,"""T.W.Tile""",,"""248 Tara Dr""",Pittsburgh,PA,15236,40.327956,-79.960479,3.5,3,1,kitchen & bath
114,gSr8zPc8M4eTxwGgPb5AsA,"""Coraopolis Collision and Repair Service""",,"""601 4th Ave""",Coraopolis,PA,15108,40.522144700000005,-80.1726915,4.5,26,1,smog check stations
178,mLP-jIIRdoaYM7fJqqFurw,"""Napoli Pizzeria""",Squirrel Hill,"""2006 Murray Ave""",Pittsburgh,PA,15217,40.434399,-79.9229828,4.0,53,1,italian
182,AXb5gCwqHl-_v6ZIMb1mXQ,"""Sheraton Great Valley Hotel""",,"""707 E Lancaster Ave""",Frazer,PA,19355,40.0339411,-75.58189490000001,3.0,43,1,hotels
188,htKaC4cHY4wlB4Wqb8CDnQ,"""Allure""",Bloomfield,"""4730 Liberty Ave""",Pittsburgh,PA,15224,40.461378700000004,-79.948991,4.0,4,1,accessories
197,7m9ux0KgTe2NwUU0XA_9xQ,"""Double Take Auto Detailing""",Banksville,"""3030 Banksville Rd""",Pittsburgh,PA,15216,40.4013214219,-80.0430171937,4.5,14,1,automotive
204,LOeVGnlOti05f86ZZbgY7Q,"""Coyle Auto Body""",,"""540 McNeilly Rd""",Pittsburgh,PA,15226,40.38350429999999,-80.0178472,3.5,3,1,automotive
264,Qs7X8UTwtp9SvtxvEP4hLg,"""Fine Wine & Good Spirits - Premium Collection""",,"""The Water Works, 974 Freeport Rd""",Pittsburgh,PA,15238,40.4886935886,-79.8908097541,5.0,7,1,beer
268,lBNPDcSvmUbq7W69HvmRTA,"""Pizza Hut""",Etna,"""550 Butler St""",Etna,PA,15223,40.500796,-79.94342900000001,1.5,15,1,italian
275,LaWNGoxsBBrzm6C7Driz5Q,"""Shear Talent""",,"""5241 Library Rd""",Bethel Park,PA,15102,40.3327563,-80.0220604,5.0,4,1,hair extensions
295,ualXxlORdVbDlW-Ukww0QQ,"""Monro Muffler Brake & Service""",,"""10551 Perry Hwy""",Wexford,PA,15090,40.6115416562,-80.05458086729999,3.0,4,1,auto repair
332,j37Z4LIXTH9j6KOq9aX8DQ,"""Beer Emporium""",East Liberty,"""302 S Saint Clair St""",Pittsburgh,PA,15206,40.4599557,-79.930726,3.5,169,1,beer
346,UFHwS_Bb5IrVYFWGutkY7A,"""Fluhme Glam Bar""",,"""607 Washington Rd, Ste 100""",Pittsburgh,PA,15228,40.382944,-80.043616,5.0,6,1,wedding planning
363,4RhyluqR0eXERECBLallXQ,"""Sugar & Spice""",,"""5200 Clairton Blvd""",Pittsburgh,PA,15236,40.3441771,-79.97237679999999,4.0,28,1,food
389,v1GHndXuUkDdV-gNCSldQQ,"""The Exchange""",,"""6535 Robinson Ctr Dr""",Pittsburgh,PA,15205,40.455754299999995,-80.1619204,3.0,5,1,books
394,575BoZY8tDPcfSRcdsUNLw,"""Eat'n Park""",Banksville,"""1250 Banksville Rd""",Pittsburgh,PA,15216,40.4167567,-80.0303278,3.0,42,1,american (new)
421,fsvIASOJFSZohU2qmbMc7Q,"""Highland Park""",Highland Park,"""City of Pittsburgh Parks & Recreation""",Pittsburgh,PA,15210,40.4810342784,-79.9155807495,5.0,20,1,active life
422,EjNf9cqCK9V5xChJXhxnLw,"""Dots and Doodles""",,"""10925 Perry Hwy""",Wexford,PA,15090,40.6172685,-80.05671219999999,4.0,4,1,arts & entertainment
430,2cfzQGANxuIGcCUrlwnV7w,"""Popeyes Louisiana Kitchen""",,"""3420 William Penn Hwy""",Pittsburgh,PA,15235,40.4299884,-79.81329140000001,2.0,18,1,fast food
435,JxSmlL_MckX0dvS5XBg0Cg,"""Olympos Gyros""",,"""5950 Steubenville Pk""",Robinson Township,PA,15136,40.4482086,-80.14277290000001,4.0,48,1,greek
441,cs2VDcXDee_jzJoPT_fycA,"""Motel 6""",Banksville,"""2898 Banksville Rd""",Pittsburgh,PA,15216,40.4038660051,-80.04081756810001,2.5,16,1,hotels & travel
467,IeHlFrVmHzfyaGzdx01l_g,"""Kim Quyen Nail Salon""",,"""1045 Waterdam Plaza Dr""",Canonsburg,PA,15317,40.262798700000005,-80.1338401,4.0,3,1,beauty & spas
489,BHHlUVk3K2PbC5azR-sk3A,"""Day West Liberty Subaru""",Beechview,"""2310 W Liberty Ave""",Pittsburgh,PA,15226,40.4010046,-80.0231252,2.5,17,1,auto repair
491,w5F7Gz3UGg6TmpKhBCOiaw,"""Dom's TV & Appliance""",,"""1860 Homeville Rd""",West Mifflin,PA,15122,40.3652418031,-79.872553428,3.5,3,1,electronics
705,uEsOy9PV5007lvXPOvVezg,"""Pennzoil 10 Minute Oil Change""",Banksville,"""3116 Banksville Rd""",Pittsburgh,PA,15233,40.4003873,-80.0440153,3.0,4,1,transmission repair
720,SIJm66InxhHRTcLPB6OwKA,"""PointBreezeway""",Point Breeze,"""7113 Reynolds St""",Pittsburgh,PA,15208,40.446957299999994,-79.9046812,5.0,12,1,guest houses
724,nj4izgDoJOqTpTlQtZGDvA,"""Everett & Hurite""",,"""400 Penn Center Blvd""",Pittsburgh,PA,15235,40.4279285,-79.8111866,3.5,4,1,health & medical
729,J9f-9Prw2YVM-fiZqv2fmQ,"""Original Hot Dog Shop""",Oakland,"""3901 Forbes Ave""",Pittsburgh,PA,15213,40.442147,-79.956513,3.5,210,1,hot dogs
796,a5xUI7TvsNhM5gZr6KowDg,"""Sesame Inn""",,"""711 Browns Ln""",Pittsburgh,PA,15237,40.546446483000004,-80.0190292792,3.5,93,1,restaurants
835,Z1etKi_kBsMr3oGolRrGaA,"""Sauce Pot""",,"""807 5th Ave""",Coraopolis,PA,15108,40.519850899999994,-80.1698834,4.5,4,1,restaurants
880,wG3GDD8ovrdWMURLGWePcA,"""Mr Waterheater Enterprises""",,"""1067 3rd St, Ste 1067""",North Versailles,PA,15137,40.376785999999996,-79.8079829,3.5,10,1,water heater installation/repair
902,8ISwdpgOEj6rznVvcWGXyA,"""Cenk Integrated Health & Spine Centers""",,"""107 Gamma Dr, Ste 100A""",Pittsburgh,PA,15238,40.4958991,-79.870652,4.0,4,1,medical centers
907,o8TpuB5PmdXXYQhG_SxmhQ,"""Grande Pizza""",,"""12120 Rte 30""",North Huntington,PA,15642,40.331790000000005,-79.7416919,3.0,14,1,pizza
935,Pp5m0W7nF_OIzA6EkXMEkA,"""Howard's Towing & Recovery""",Hazelwood,"""60 Irvine St""",Pittsburgh,PA,15207,40.4238274,-79.95156879999999,3.0,21,1,body shops
943,C2mqIEnUWeo1UOcW00nWtA,"""Station Brake Cafe""",,"""500 Station St""",Wilmerding,PA,15148,40.3934347,-79.8101522,4.0,15,1,bars
947,wcmwxLp53B21f_eZhzSF7g,"""Mount Washington""",Mt. Washington,"""""",Pittsburgh,PA,15211,40.433155434,-80.0172042847,4.5,63,1,local flavor
1014,F_8jMuQXDvCNbD0pbp68Wg,"""Verizon""",,"""3828 William Penn Hwy""",Monroeville,PA,15146,40.436272882800004,-79.7823983431,3.0,11,1,internet service providers
1047,ZElIifFslL_948I-hI_ukw,"""Zovko Bros""",South Side,"""2424 E Carson St""",Pittsburgh,PA,15203,40.427648,-79.970147,3.0,7,1,auto repair
1057,eHlpGh5LMjuuJeGAcbYn-Q,"""Dana M. Monahan, DDS, LLC""",Bloomfield,"""4760 Liberty Ave""",Pittsburgh,PA,15224,40.460845,-79.948054,4.0,4,1,health & medical
1064,nF5TXLMmC6IJgQxE9CEZPw,"""Sun Penang""",Squirrel Hill,"""5829 Forbes Ave""",Pittsburgh,PA,15217,40.4382561,-79.9218667,3.0,148,1,malaysian
1146,Fbycyr3KEjDQ4wO9AStmvQ,"""Cafe Sam""",Bloomfield,"""5242 Baum Blvd""",Pittsburgh,PA,15224,40.456227,-79.940241,4.0,70,1,american (new)
1182,ATwgU_Mn00KBcUJFt_YCuw,"""Wellness Associates""",,"""3322 Babcock Blvd""",Pittsburgh,PA,15237,40.5333593,-80.01843029999999,2.0,8,1,chiropractors
1195,j4jsgp-e315s11ehJfRzAA,"""The Carlton""",Downtown,"""500 Grant St""",Pittsburgh,PA,15219,40.4396782,-79.9959316,3.5,82,1,restaurants
1198,sWgi1O7nBNF7eAjwZBqBXw,"""EMCO Sprinkler Company""",,"""4091 Saltsburg Rd""",Murrysville,PA,15668,40.49087,-79.691767,2.5,3,1,shopping
1303,4l56EXyCWwPlPXcX9qq-jw,"""Dannys Pizza""",,"""5159 Library Rd""",Bethel Park,PA,15102,40.3352143,-80.0228755,4.0,61,1,restaurants
1325,QI0PGXbGkIdInOOBeq6ieQ,"""TJ Buffet Sushi and Grill""",,"""4801 McKnight Rd""",Pittsburgh,PA,15237,40.522650512800006,-80.00647980720001,3.0,36,1,japanese
1340,SR5HPi7niUHNUmVEYsEudw,"""Supercuts""",,"""1154 Freeport Rd, Fox Chapel""",Pittsburgh,PA,15238,40.487988,-79.878738,2.5,7,1,shopping
1351,q2WR76q5R2GvE_2gO0ZQZQ,"""Platinum Salon""",Lawrenceville,"""4731 Butler St""",Pittsburgh,PA,15201,40.4742945,-79.9577518,4.5,11,1,beauty & spas
1360,aEXVacFIyBb0b_XbxCuyIg,"""Dave's Towing""",Avalon,"""378 Spruce Run Rd""",Pittsburgh,PA,15202,40.5043928,-80.0708967,1.0,3,1,towing
1364,OohsWZ3A0bo8y6N6vi6ePA,"""Anthony's Pizza""",Carrick,"""1820 Brownsville Rd""",Pittsburgh,PA,15210,40.396531,-79.98791899999999,3.0,13,1,pizza
1377,FO2SNKF9I8mvTCAvbClJZQ,"""Pizza Palermo""",,"""109 Penn Plz""",Turtle Creek,PA,15145,40.405814899999996,-79.826451,1.0,4,1,restaurants
1382,bqW0f0RigwpYyz1lbxhHlw,"""Penn Brewery""",Troy Hill,"""800 Vinial St""",Pittsburgh,PA,15212,40.457141664299996,-79.9915010041,3.5,201,1,german
1401,CNs_8drkTel1FD64Q4UTyg,"""Esspa Kozmetika Organic Skincare""",Aspinwall,"""17 Brilliant Ave""",Pittsburgh,PA,15215,40.489415799999996,-79.9013198,3.0,21,1,beauty & spas
1466,sYneggodKLkckjBu_aH5Pw,"""Tina's Hair Designs""",,"""7051 Steubenville Pike, Ste I""",Oakdale,PA,15071,40.443259499999996,-80.1753005,2.5,3,1,hair salons
1482,zYzkwEGqHgLNrCE_rKhMDg,"""Nails By Karen""",,"""3194 Washington Rd""",McMurray,PA,15317,40.29123920000001,-80.10709890000001,4.5,7,1,beauty & spas
1487,-eocJ0ugt1rEDZj160Xhrg,"""Goldfish Swim School - Wexford""",,"""160 Lake Dr""",Wexford,PA,15090,40.617081400000004,-80.05337540000001,4.0,11,1,specialty schools
1495,MPjwZL8DHKCEbFw8LYiAIA,"""Subway""",Beechview,"""1343 W Liberty Ave""",Pittsburgh,PA,15226,40.4111876,-80.0125181,3.0,3,1,fast food
1515,s0HXXbiItSvVQBLvyckeRA,"""Dairy Queen""",South Side,"""1223 E Carson St""",Pittsburgh,PA,15203,40.4289659,-79.98547579999999,2.5,10,1,food
1559,MFaerBsWIA2du9kHGeKDeA,"""Europe Nails""",,"""100 Center St""",Pittsburgh,PA,15202,40.4527845804,-80.15747308729999,2.5,15,1,beauty & spas
1574,FIIIQplC7gkEW2kyRGSFxg,"""Madison's Bar and Grill""",,"""2750 Mosside Blvd""",Monroeville,PA,15146,40.437125200000004,-79.75514090000001,3.0,4,1,restaurants
1577,-7bvsSGKnY6O-JmSWc5V6g,"""Nine Stories""",Lawrenceville,"""5400 Butler St""",Pittsburgh,PA,15201,40.4829304602,-79.9509279054,4.5,10,1,books
1579,dwAtKEutQKgCvb7wSSU8Kw,"""Top Gear Bicycle Shop""",Shadyside,"""5996 Centre Ave, Ste 204""",Pittsburgh,PA,15206,40.4595929,-79.9253253,4.0,21,1,shopping
1595,rxpiO3CB5323XsBVzMB7nw,"""Kerber's Dairy""",,"""1856 Guffey Rd""",North Huntingdon,PA,15642,40.3101816,-79.7367545,4.0,18,1,food
1599,ODhngitoIH2g37TWtNaxpw,"""Art F X""",,"""3450 Babcock Blvd""",Pittsburgh,PA,15237,40.5412019981,-80.02571694550001,4.0,6,1,beauty & spas
1612,Go030M_vCtfNBTMCyZOTcw,"""Specialty Luggage""",Downtown,"""915 Liberty Ave""",Pittsburgh,PA,15222,40.443235831799996,-79.997539246,4.0,11,1,shopping
1644,OFT4gaCiwQFITpPLVtBvKQ,"""Pittsburgh Sweet Treats""",,"""800 Mt Royal Blvd""",Pittsburgh,PA,15223,40.5146089,-79.95884240000001,4.5,3,1,cupcakes
1745,eDY9g4_uMX_uMuUzWAFqfg,"""Today's Tiffany Home Decor And More""",,"""1500 Washington Rd, Ste 2802""",Pittsburgh,PA,15228,40.356959100000005,-80.0518073,2.5,3,1,lighting fixtures & equipment
1824,lANErA3v8e2VYzMvLzWN7w,"""Alco Parking - West General Robinson Street Garage""",North Side,"""668 W General Robinson St""",Pittsburgh,PA,15212,40.4476669,-80.0095963,4.0,4,1,automotive
1847,fMr9T_YnJ2k-mGo4a9aIQw,"""Alberta Modern Hair""",,"""733 Washington Rd, Ste 2""",Pittsburgh,PA,15228,40.379093100000006,-80.04488309999999,3.0,7,1,hair salons
1874,gEXjlzGE_-OIX4rFWGB4CA,"""Roto-Rooter Plumbing & Water Cleanup""",Knoxville,"""756 Brownsville Rd""",Pittsburgh,PA,15210,40.408462,-79.9915004,3.0,15,1,plumbing
1886,TjJdpI5XX2zwHmXQbnEWeQ,"""Gyros N'at""",,"""512 Braddock Ave""",Pittsburgh,PA,15104,40.4043052902,-79.8703792884,4.5,14,1,cafes
1899,63iOXcDVSr8Jm0C8mjzo6g,"""McDonald's""",Greentree,"""1 Poplar St""",Pittsburgh,PA,15205,40.4273917,-80.0533614,1.5,6,1,restaurants
2046,163fCdtWaQAWg1Z1281v7w,"""Foreign Fix""",,"""6112 Steubenville Pike""",Robinson Township,PA,15136,40.444605100000004,-80.1465283,4.0,4,1,auto repair
2055,X6Ld6HChDrQN_4X6V_7VQQ,"""Ham N Eggers Diner""",,"""1025 Lebanon Rd""",West Mifflin,PA,15122,40.3609502875,-79.93245,4.0,6,1,restaurants
2057,gCZAYkIcRjNYYRHQ9htpJQ,"""Bella Luna Trattoria""",,"""5060 William Penn Hwy""",Monroeville,PA,15146,40.4280734,-79.7060147,3.5,77,1,restaurants
2058,EUgHFeAvock2Ut3iWPlG8Q,"""Taco Bell""",,"""4032 William Penn Hwy""",Monroeville,PA,15146,40.4384319694,-79.7679416151,2.0,9,1,fast food
2065,kxXuthvJvKZ_mS5UA3JrLQ,"""Cala Lily Restaurant And Bar""",,"""500 Grandview Crossing, Ste 20""",Gibsonia,PA,15044,40.6430948791,-79.9394520745,4.0,32,1,american (new)
2081,F-xrInMjPTmOc_-a7_AH6A,"""JCPenney""",,"""500 Monroeville Mall""",Monroeville,PA,15146,40.42944,-79.795743,3.0,8,1,womens clothing
2155,lE68i-3i1UvIEO7mW2vbJA,"""Weinstein Imaging Associates""",,"""5500 Corporate Dr, Ste 100""",Pittsburgh,PA,15237,40.563836,-80.024215,3.5,3,1,diagnostic imaging
2178,j8INaXpsUvQVzU0nkTZF2g,"""Oakdale Inn""",,"""5200 Noblestown Rd""",Oakdale,PA,15071,40.398379999999996,-80.186573,3.0,4,1,karaoke
2179,HKExCPp1uxyQY1jlfYAhkA,"""The South Side BBQ Restaurant""",South Side,"""75 S 17th St""",Pittsburgh,PA,15203,40.4293613,-79.9817741,3.5,14,1,restaurants
2256,zOP3oRiUR6DP6o9mQ4JYGg,"""Bootleggers""",Oakland,"""403 Semple St""",Pittsburgh,PA,15213,40.4370186,-79.95484509999999,3.0,15,1,bars
2282,hC4GGbGfpp1xfH47fZDDiA,"""Stride Away Equestrian Center""",,"""101 Hohman Ln""",Pittsburgh,PA,15237,40.544666,-80.09563399999999,5.0,3,1,horseback riding
2339,8PketBhi3DllXR6hM2xsCw,"""Mellon Square""",Downtown,"""534 Smithfield St""",Pittsburgh,PA,15222,40.4410963,-79.99778719999999,4.0,5,1,parks
2354,7QhYLKgSuBur1SMgms_-wQ,"""Trinity Jewelers""",,"""647 Mount Nebo Rd""",Pittsburgh,PA,15237,40.543689,-80.08115459999999,5.0,4,1,shopping
2392,5ry-n1zoefQQHczi7nBC-w,"""Sassy's Nail Spa""",,"""284 S Hills Village""",Pittsburgh,PA,15241,40.3401354,-80.0548022,3.0,19,1,beauty & spas
2420,77N3luh2YzfJFJGFIfqqbw,"""Duke's Upper Deck Cafe""",Homestead,"""122 W 8th Ave""",Homestead,PA,15120,40.405311,-79.912595,3.5,50,1,american (new)
2421,fb5HMxDHxNI7tEcAOTgX3Q,"""Restoration Hardware""",,"""1500 Washington Rd""",Pittsburgh,PA,15228,40.357213,-80.05209509999999,3.5,7,1,shopping
2458,-ySaJC9irFPbJvEVPMe0sw,"""Alex and Ani Pittsburgh""",Shadyside,"""5505 Walnut St""",Pittsburgh,PA,15232,40.4514119921,-79.9336313456,3.5,12,1,jewelry
2471,_Tn9xzE06-7kDH2CzRg9YA,"""City of Bridges Cafe""",,"""1000 Airport Blvd""",Pittsburgh,PA,15231,40.4956799,-80.2562685,1.5,8,1,restaurants
2481,bpvv9BpcTlkLeMbYSQZDsw,"""SteamMasters""",West View,"""4535 Mcknight Rd""",Pittsburgh,PA,15229,40.5006447,-80.0121147,4.5,5,1,shopping
2485,BNeS_hZfmdQWsqewj-LuDA,"""Ting's Kitchen""",,"""3200 McIntyre Square Dr""",Pittsburgh,PA,15237,40.5531627166,-80.01551670180001,4.5,52,1,chinese
2489,KCjUVqd1wSuK1AK0RbWczg,"""Target""",Homestead,"""360 Waterfront Dr E""",Homestead,PA,15120,40.41211320000001,-79.9113203,3.5,25,1,department stores
2506,L11s10GOzc_0uL0VRtyugw,"""Rive Nail Skin Care Spa""",,"""4522 William Penn Hwy""",Murrysville,PA,15668,40.4258571,-79.67393840000001,5.0,4,1,hair removal
2508,7B-xM_3t9NKebmkEodw3CQ,"""Mr Hoagie""",,"""4734 Lebanon Church Rd""",Dravosburg,PA,15034,40.3543304,-79.90070920000001,3.5,11,1,fast food
2511,yV3ak7F2t3n8SO7QsvLgEA,"""Cinemark""",,"""600 Monroeville Mall""",Monroeville,PA,15146,40.4285963145,-79.7955038384,4.5,37,1,cinema
2524,wGUmlG8Vy2g1jMx6fKtIkg,"""Ribcage Bbq""",,"""87 Boat Club Rd""",Monongahela,PA,15063,40.1976287,-79.9020931,3.0,10,1,restaurants
2531,ib5h1C7xgmZN47HjfWXPCQ,"""Quilters Depot""",,"""4160 Library Rd""",Pittsburgh,PA,15234,40.356359399999995,-80.0287569,2.0,3,1,local services
2550,XP5xYARH0WB3eW_AmICbPA,"""Bram Cleaning & Tailoring""",Mt. Washington,"""120 1/2 Shiloh St""",Pittsburgh,PA,15211,40.431104600000005,-80.0073375,3.0,3,1,laundry services
2590,40RqHzPLHxDX53R0aTWcwQ,"""Greentree Animal Clinic""",,"""2080 Greentree Rd""",Pittsburgh,PA,15220,40.3922071,-80.0691338,4.0,14,1,veterinarians
2667,QqpzPFFHeHqyWSPZI-DkvQ,"""The Hangar""",,"""500 Flaugherty Run Rd""",Coraopolis,PA,15108,40.526622700000004,-80.2493988,3.5,26,1,music venues
2701,zJ-V2GZ9q7UkwYFl3G116w,"""Olive Garden Italian Restaurant""",,"""527 Clairton Blvd""",Pleasant Hills,PA,15236,40.333009000000004,-79.94570870000001,3.5,32,1,wine bars
2711,BpU9-wcOWyKcVtkvnfRazA,"""Wok & Grill""",Downtown,"""120 5th Ave""",Pittsburgh,PA,15222,40.441888,-80.003443,3.0,3,1,restaurants
2719,iKbtAQz2rUu99PgJvcx2Jg,"""Burgatory""",,"""100 Blue Spruce Way""",Murrysville,PA,15668,40.4278278251,-79.7010137947,4.0,113,1,bars
2760,1jKF78-6D8tpyimNTrMDVw,"""Michaels""",,"""3759 William Penn Hwy""",Monroeville,PA,15146,40.4377502,-79.7863668,2.5,4,1,knitting supplies
2766,dHiq1JliKgh_3z-KnTpCaA,"""Roxanne's Catering""",Bloomfield,"""4124 Main St""",Pittsburgh,PA,15224,40.46494860000001,-79.9544552,4.0,3,1,restaurants
2767,vGQxPGvI4QLtupSAxO8c7Q,"""Bantha Tea Bar""",Bloomfield,"""5002 Penn Ave""",Pittsburgh,PA,15224,40.464887,-79.94394399999999,4.5,18,1,tea rooms
2779,8EZZKsZ9Iuwz7Lem9NfN_w,"""Goodyear Auto Service Center""",,"""678 Mall Circle Dr""",Monroeville,PA,15146,40.4299398393,-79.7906729579,2.0,4,1,auto repair
2848,KNpcPGqDORDdvtekXd348w,"""Carriage Inn Restaurant and Catering""",,"""1601 Lovedale Rd""",Elizabeth,PA,15037,40.285064,-79.84239040000001,3.5,16,1,caterers
2850,VtxiIv-VIOp3NIpE5tQQIw,"""Getgo""",South Side,"""3059 E Carson St""",Pittsburgh,PA,15203,40.4230927735,-79.9601144217,3.5,10,1,food
2857,bAHDSbpJE3kKJkW9OBgOyw,"""Bellisario's Auto Body""",Oakland,"""3750 Childs St""",Pittsburgh,PA,15213,40.4291505,-79.9516152,4.5,25,1,automotive
2860,82_4u3Toy7vB8imnJ-cCnQ,"""Super 8 Pittsburgh/Monroeville""",,"""1807 Golden Mile Hwy-Route 286""",Pittsburgh,PA,15239,40.446474136,-79.715373561,2.5,6,1,event planning & services
2864,Ql8pMRlsFKNr-bqMItpj5Q,"""European Wax Center""",,"""4080 Washington Rd.""",McMurray,PA,15317,40.2659881,-80.1299578,4.5,24,1,skin care
2907,9GA2gmLV4NX2oJkuz6fdcA,"""Garage Door Saloon""",Oakland,"""223 Atwood St""",Pittsburgh,PA,15213,40.4407028,-79.95679009999999,3.0,33,1,sports bars
2917,wht5FaGi7r86WKW7-VX2lQ,"""Today's Market""",,"""612 Allegheny River Blvd""",Oakmont,PA,15139,40.5194495,-79.8422971,5.0,4,1,food
2922,2wGXR2aHOCNJpV4pWU5Zxg,"""Fitzy's Putt-N-Go""",,"""2072 Greentree Rd""",Pittsburgh,PA,15220,40.3935297,-80.0658378,2.0,8,1,mini golf
2926,_PKa6Dj06Q2AHKGkpJ7GnA,"""Z-Best BBQ""",The Hill District,"""1315 5th Ave""",Pittsburgh,PA,15219,40.4388749,-79.98756230000001,4.5,28,1,barbeque
3020,sirrm86qpDQeTM8JmA9mAQ,"""Finleyville Flower Shoppe""",,"""3510 Washington Ave""",Finleyville,PA,15332,40.2517787,-80.00514090000001,3.0,4,1,flowers & gifts
3035,fIVRnppEVSPK4ZRAXdk9IQ,"""iLoveKickboxing.com""",,"""5001 Curry Rd""",Pittsburgh,PA,15236,40.3498421248,-79.99423790670001,5.0,6,1,fitness & instruction
3037,nG9wrA0F8uX7feyZkticww,"""Amazing Books & Records""",Downtown,"""929 Liberty Ave""",Pittsburgh,PA,15222,40.4434256,-79.99697370000001,4.0,13,1,books
3070,h2x_7s0WvgRUpyuKoYDSdg,"""Bend the Bridge Yoga""",,"""3249 Washington Pike, Ste 1001""",Bridgeville,PA,15017,40.3406094,-80.1198224,5.0,3,1,fitness & instruction
3102,icco2swWSWYyItdI_ktyvg,"""Fox's Pizza Den""",,"""2374 Golden Mile Hwy""",Plum,PA,15239,40.4631736505,-79.7046889953,4.0,4,1,pizza
3120,HNbX93hyrua2p6LO4IwdHA,"""Taco Bell""",,"""1690 Cochran Rd""",Pittsburgh,PA,15220,40.391242999999996,-80.060459,2.0,13,1,fast food
3129,sz6_gKcHjtcpWKIZLXV85w,"""Or, The Whale""",Downtown,"""463 Blvd of the Allies""",Pittsburgh,PA,15219,40.437298999999996,-79.9984685,4.0,61,1,breakfast & brunch
3133,yZ_wpRr4Svw8YRZ9voCgIw,"""The Vandal""",Lawrenceville,"""4306 Butler St""",Pittsburgh,PA,15201,40.4707671,-79.9599462,4.0,148,1,american (new)
3181,YZItTPlVWeq13bfAJtT2-g,"""China House II""",,"""7400 Church St""",Swissvale,PA,15218,40.422307,-79.88932170000001,3.0,7,1,chinese
3182,LQFmktF43j2NPncKdNd9mg,"""Fat Heads Saloon""",South Side,"""1805 E Carson St""",Pittsburgh,PA,15203,40.428966700000004,-79.9801756,4.0,657,1,restaurants
3194,CzA6ThquEWOXgVjkYeY1JA,"""Kathmandu Artifacts""",Bloomfield,"""4625 Liberty Ave""",Pittsburgh,PA,15224,40.462452,-79.94990899999999,5.0,5,1,accessories
3226,PLxIkb7MLT8_ctte_exunw,"""Vca Duncan Manor Animal Hospital""",,"""1720 Ferguson Rd""",Allison Park,PA,15101,40.565138399999995,-79.9977484,3.0,4,1,pets
3236,2UCXCbv7qaO3d8FfQd4Ing,"""Pizza Bellino""",Squirrel Hill,"""5839 Forbes Ave""",Pittsburgh,PA,15217,40.4382114,-79.92136740000001,3.0,62,1,salad
3256,9_1N2SoNoS3DGV9V-4kndw,"""Craftwork Kitchen""",Downtown,"""600 Grant St""",Pittsburgh,PA,15219,40.441355,-79.994853,4.0,23,1,food court
3275,l_pR3x7v2mvE3luVdmGuoQ,"""Orient Kitchen""",Bloomfield,"""4808 Baum Blvd""",Pittsburgh,PA,15213,40.4541975,-79.94710500000001,3.0,60,1,sushi bars
3290,p1xzg2pll2qC84K3OmLIlw,"""Quest Diagnostics""",,"""4225 Brownsville Rd""",Pittsburgh,PA,15227,40.363862,-79.983698,1.0,3,1,laboratory testing
3314,xwEYTGJ_82ScbpXcheqqQw,"""Subway""",,"""2020 Ardmore Blvd, Ste 170""",Pittsburgh,PA,15221,40.421261,-79.854177,3.5,4,1,fast food
3332,tu8u4SnLvW3mcTS_aRdQ_w,"""US Post Office""",Bellevue,"""15 N Sprague Ave""",Pittsburgh,PA,15202,40.4969589094,-80.0571530672,2.5,3,1,local services
3338,WKlMFUCGI7dCysGkFLWvaQ,"""Stagioni""",South Side,"""2104 E Carson St""",Pittsburgh,PA,15203,40.4282783,-79.9760041,4.0,108,1,nightlife
3393,zhPSu9zUD7FTGtCLyVPlaw,"""Charlie's Ice Cream""",,"""4376 Old William Penn Hwy""",Monroeville,PA,15146,40.443434100000005,-79.7688637,3.5,7,1,ice cream & frozen yogurt
3406,eooGGpXNczzi60QA1635GA,"""L.A. Studio Nail & Spa""",,"""6519 Robinson Centre Dr""",Pittsburgh,PA,15205,40.4559335,-80.1611745,2.5,11,1,beauty & spas
3430,DbFevVtZeNYvIRh7oh_2JQ,"""Flynn's Tire And Auto Service""",,"""12551 Lincoln Hwy W""",North Huntingdon,PA,15642,40.337405700000005,-79.7465468,2.5,7,1,tires
3449,N3tvrAZ4gHzR_-vhU96eGw,"""Bradford Hills Pet Hotel & Grooming Salon""",,"""13055 Perry Hwy""",Wexford,PA,15090,40.644561200000005,-80.0698794,4.0,4,1,pet services
3468,u1_a84WeHWa1YlreV6RZtg,"""Five Guys""",,"""1029 Freeport Rd""",Pittsburgh,PA,15238,40.4881157,-79.88541120000001,3.5,15,1,fast food
3525,F1vdFYr7P4Xb3uAQ2AYgzQ,"""Empire Palace Asian Restaurant and Bar""",,"""5100 Corporate Dr""",Pittsburgh,PA,15237,40.5614199,-80.02457290000001,3.5,49,1,dim sum
3550,oNF-vT3PbCcncgQjPKFVeA,"""Crazy Mocha""",Sewickley,"""417 Walnut St""",Sewickley,PA,15143,40.5406397813,-80.1826031388,4.5,18,1,coffee & tea
3556,eKTALGtRKKWEa0pv53oO0A,"""Jack Maggs Agency""",Brookline,"""1700 Saw Mill Run Blvd""",Pittsburgh,PA,15210,40.396044399999994,-79.9984825,3.5,5,1,automotive
3601,jcZHZX42x2ZvVEJ1VLCzmg,"""Monro Muffler Brake & Service""",,"""3754 William Penn Hwy""",Monroeville,PA,15146,40.4352072847,-79.7874490074,4.0,5,1,tires
3614,N60yOH1GpH8wE9kln7m3XQ,"""Cafe de Noir""",Brookline,"""802 Brookline Blvd""",Pittsburgh,PA,15226,40.3935102,-80.02008909999999,4.5,9,1,coffee roasteries
3630,0FJHkWgCsvgDjWQyRBlKkA,"""Allegheny Imaging of McCandless Llc""",,"""9335 Mcknight Rd""",Pittsburgh,PA,15237,40.5737576,-80.0249988,1.0,3,1,health & medical
3642,3nR6JE3hD-D-Fhzr10_k7g,"""Mitchell's Fish Market""",Homestead,"""185 W Waterfront Dr""",Homestead,PA,15120,40.4089628544,-79.9180766056,3.5,153,1,american (traditional)
3669,zPaoppBtXodfjEnsT7GFZA,"""AGH Suburban""",Bellevue,"""100 S Jackson Ave""",Pittsburgh,PA,15202,40.494134,-80.06020500000001,2.5,6,1,urgent care
3696,X2lgI8CuVEsH5UDs14rMhw,"""Andys Wine Bar""",Downtown,"""510 Market Street""",Pittsburgh,PA,15222,40.4414335,-80.0020533,3.5,59,1,jazz & blues
3706,qUZvcHJ6YDNHVmPLe02mYg,"""The Pizza Company""",,"""1711 Clairton Rd""",West Mifflin,PA,15122,40.3289917,-79.9322574,4.0,9,1,pizza
3713,BX7ONRpKClT8ahXwEn_CJA,"""The Exchange""",,"""4864 McKnight Rd""",Pittsburgh,PA,15237,40.529490113899996,-80.0081194007,3.0,8,1,vinyl records
3719,iXnOeWl0mmtsAJfwwW2aHQ,"""Veronica Varos Photography""",,"""898 Pennsylvania 910, Ste 7""",Pittsburgh,PA,15215,40.506845299999995,-79.9080757,5.0,6,1,event planning & services
3720,t3MColc7l78DyJDPqczF7w,"""Yoga in Sewickley""",Sewickley,"""427 Broad St""",Sewickley,PA,15143,40.5399654,-80.180965,4.5,6,1,yoga
3732,YN58Coh1nvnsNS0FXIeAKg,"""Divine Celebrations""",Lawrenceville,"""""",Pittsburgh,PA,15122,40.474970692,-79.9432542916,3.5,5,1,event planning & services
3751,OU80zeb6HbcuxZT5pct90w,"""Planet Fitness - Castle Shannon, PA""",,"""300 Mount Lebanon Rd""",Castle Shannon,PA,15234,40.3687101076,-80.0346198678,4.0,6,1,trainers
3755,E2hSxPmu4V1POrN676y_Qg,"""Baierl Honda""",,"""10430 Perry Hwy""",Wexford,PA,15090,40.606682,-80.051737,4.0,36,1,automotive
3765,u7MkgrDxjiHVR13fEZuD_A,"""Richard Gottlieb, DMD""",Oakland,"""3347 Forbes Ave, Ste 302""",Pittsburgh,PA,15213,40.438432,-79.961797,5.0,7,1,cosmetic dentists
3767,Oyja1-oQWJ9rb4TnfQSh_g,"""Mattress Firm The Waterfront""",Homestead,"""574 E Waterfront Dr""",Homestead,PA,15120,40.4118533,-79.90567490000001,2.5,3,1,furniture stores
3788,yko7wPzC6qpbFOJQYs9-GQ,"""Speedway Gas Station and Mini Store""",,"""303 Hulton Rd""",Oakmont,PA,15139,40.526263,-79.842197,4.0,5,1,automotive
3807,1gb-Lgt4qH5P_WaV0mtdag,"""Lorenzato Automotive Service""",,"""1403 McLaughlin Run Rd""",Pittsburgh,PA,15241,40.355903000000005,-80.08965,5.0,6,1,auto repair
3820,sJa6bIQ_lRxWfBgoYULBRQ,"""New Valley Dental""",,"""1200 Ashwood Dr, Ste 1202""",Canonsburg,PA,15317,40.255146,-80.164858,5.0,4,1,health & medical
3822,qJZvNzpWMnXvVRbc3F9slA,"""SpringHill Suites Pittsburgh Southside Works""",South Side,"""2950 S Water St""",Pittsburgh,PA,15203,40.4269720201,-79.96233341920001,3.0,39,1,hotels & travel
3825,l1JDX-o0wCLykuh78R8Kng,"""Whitfield""",East Liberty,"""120 S Whitfield St""",Pittsburgh,PA,15206,40.4613153,-79.9263448,4.0,137,1,restaurants
3826,NW7DF5w_N0Oh_RmY70tGLw,"""Brunos Garage""",East Liberty,"""518 Mellon St""",Pittsburgh,PA,15206,40.4677909,-79.92658440000001,5.0,7,1,auto repair
3869,aMTo0iZuGX_vYblRIr9jgw,"""Cigar Cigars""",,"""432 Lancaster Ave""",Frazer,PA,19355,40.037268299999994,-75.55891009999999,4.0,4,1,tobacco shops
3884,nnggnOHpYypvzXSAotOjfg,"""Primp Salon""",,"""4016 Route 130""",Irwin,PA,15642,40.3710685,-79.6816448,4.5,7,1,beauty & spas
3891,LzF-P-Tjb8XU8FmAY2W7mw,"""Rickjohn""",Lawrenceville,"""4920 Harrison St""",Pittsburgh,PA,15201,40.4781325959,-79.9578986467,1.5,3,1,home services
3936,JkLGKsj97FDqYQI-TTsu4w,"""Big Lots - Bridgeville""",,"""1155 Washington Pike, Ste 46""",Bridgeville,PA,15017,40.36927070000001,-80.10555179999999,4.0,4,1,food
3942,vG8Z_TVdHkHdT2OgKRq77A,"""American Tattoo""",,"""757 Allegheny River Blvd""",Verona,PA,15147,40.506286200000005,-79.84276379999999,5.0,5,1,piercing
3946,CwGRFM0Y9ca8MBxg2lVqbQ,"""Andora""",,"""1616 Mount Nebo Rd""",Sewickley,PA,15233,40.5533449,-80.1079655,3.5,77,1,american (new)
3951,p5HLsmZpzqsZpOng04I8eQ,"""Disanto Pizza""",South Side,"""125 W Station Square Dr""",Pittsburgh,PA,15219,40.4330076,-80.0045618,2.0,9,1,restaurants
3976,qccKLVChecdR9iHpJNU74w,"""Seasons OB/GYN""",Bloomfield,"""4815 Liberty Ave, Ste 215""",Pittsburgh,PA,15224,40.4606561,-79.94653840000001,3.5,12,1,obstetricians & gynecologists
3978,VFHLE5JrE9shcHHzAieG4Q,"""Patrick E. Chase Plumbing & Heating""",Beechview,"""2102 Pauline Ave""",Pittsburgh,PA,15216,40.4055963,-80.0276084,4.0,16,1,water heater installation/repair
4019,_FKBxtZpTvJNd95b32y-zw,"""Spring Hill Suites""",,"""122 Daugherty Dr""",Monroeville,PA,15146,40.4359294,-79.754285,3.0,8,1,hotels
4042,j5ZyAzGkBBi8owpFILCioQ,"""Grandma's Country Oven Bake Shop""",,"""Harrison City Export Rd""",Harrison City,PA,15636,40.3614292,-79.64583809999999,4.0,3,1,specialty food
4049,aaPncz0ICB85up3HUl2TEg,"""Shogun Japanese Steak House""",,"""8 Tech Center Dr""",Monroeville,PA,15146,40.432545000000005,-79.783247,3.0,27,1,japanese
4073,5Xci9QWwpbZg4Ng05yKOvw,"""Hair By Design""",Strip District,"""2503 Penn Ave""",Pittsburgh,PA,15222,40.454206899999996,-79.97989799999999,5.0,6,1,hair removal
4139,BGGR5ekPK6YqMRHgYNJGsw,"""Mexi-Casa""",Dormont,"""3001 W Liberty Ave""",Pittsburgh,PA,15216,40.392908,-80.0368113,3.0,71,1,restaurants
4152,3eexaenBq8HvkTiYjVl3Pg,"""McKnight Kitchen""",,"""4860 McKnight Rd""",Pittsburgh,PA,15237,40.5294531223,-80.00841481319999,4.0,39,1,restaurants
4153,G9QmB3gWMXZ2jiNbhjwyCw,"""North Hills Family Dental""",,"""9401 McKnight Rd, Ste 307""",Pittsburgh,PA,15237,40.575928999999995,-80.024087,3.5,3,1,endodontists
4172,gldPX9ANF5Nic0N7igu2og,"""Condado Tacos""",Downtown,"""971 Liberty Ave""",Pittsburgh,PA,15222,40.4438089,-79.9954857,4.0,237,1,mexican
4193,BRZ1uct8SipLzxjEoZuC0A,"""Pittsburgh  Banjo Club""",North Side,"""400 Cedar Ave""",Pittsburgh,PA,15212,40.451825899999996,-80.00079699999999,4.5,5,1,community service/non-profit
4199,c7uYoULx6X2gWXwgsmVtsg,"""King Of The Hill Beer""",Polish Hill,"""3357 Ridgeway St""",Pittsburgh,PA,15213,40.4560362,-79.96408029999999,4.5,4,1,food
4211,PflUm_m3io-0Xq4om0_pcA,"""Sport Clips""",,"""4120 Washington Rd""",Canonsburg,PA,15317,40.26490020000001,-80.1307667,4.5,3,1,massage
4213,cLTASgist2XiaBy6mnjubQ,"""Dunkin' Donuts""",,"""1601 W High St""",Stowe,PA,19464,40.246646999999996,-75.690826,1.5,6,1,donuts
4226,nocIPLY3BenFmoR3Ri_QTw,"""Panera Bread""",,"""4127 Washington Rd""",McMurray,PA,15317,40.263010369,-80.131316185,2.5,13,1,soup
4231,ZLNa4ehr3fXdXfnlT7YVMQ,"""Houlihan's""",,"""RR 19""",Bethel Park,PA,15102,40.3167073,-80.0423151,3.0,3,1,restaurants
4245,hWUC3FxAzKRqD310pdxXsQ,"""Sears""",,"""300 S Hills Vlg""",Pittsburgh,PA,15241,40.341834000000006,-80.05465500000001,3.0,4,1,appliances
4271,OnAzbTDn79W6CFZIriqLrA,"""Panera Bread""",,"""12071 Perry Hwy""",Wexford,PA,15090,40.632031,-80.060824,2.0,25,1,restaurants
4292,gMMSxoxlu-CcocrwRJfgPg,"""This Magic Moment Bridal Studio""",,"""4091 William Flynn Hwy, Ste 500""",Allison Park,PA,15101,40.567884,-79.95501290000001,5.0,14,1,bridal
4297,1swoSKie61IGamgmR9oUaw,"""Hitchhiker Brewing""",Sharpsburg,"""1500 S Canal St""",Sharpsburg,PA,15215,40.4962303575,-79.9264453724,4.0,18,1,breweries
4300,aDHD7nASfqiQBB6YXy2aGA,"""The Pretzel Shop""",South Side,"""2316 E Carson St""",Pittsburgh,PA,15203,40.428012100000004,-79.9722633,4.5,96,1,restaurants
4308,BFekmsvbSyWUBC9r0EjIIg,"""Pinnacle Eye Care""",,"""215 W Lancaster Ave, Ste F5""",Frazer,PA,19355,40.040853864,-75.540303591,4.0,8,1,eyewear & opticians
4325,0zpkvq98Gx34dF7UK2u02w,"""Claire's Accessories""",,"""Ross Park Mall""",Pittsburgh,PA,15237,40.5432756,-80.0101594,3.5,3,1,accessories
4377,eKsIdmkbKt_oWjpG9Ez7QA,"""Maestro's Barber Shop""",,"""609 Washington Ave""",Bridgeville,PA,15017,40.3569296712,-80.1130339329,4.5,13,1,barbers
4392,1w6_xrdhVD-y-DBYpv0YCQ,"""Mr Tire Auto Service Centers""",,"""1050 Freeport Rd""",Pittsburgh,PA,15238,40.486964715700005,-79.8849794269,3.0,13,1,tires
4398,IRlEP_EvdACUpLS56GzoxA,"""Moon Autobody""",,"""5604 University Blvd""",Moon Township,PA,15108,40.5247844,-80.21550040000001,3.5,3,1,automotive
4405,39kvczzSB18xYCHSQ1ZdzQ,"""Framework""",Squirrel Hill,"""5868 Forbes Ave""",Pittsburgh,PA,15217,40.4378511,-79.9202645,5.0,4,1,shopping
4415,uLXel3bWmKsrMEMCDzO5bA,"""North Hills Toyota""",,"""7401 Mcknight Rd""",Pittsburgh,PA,15237,40.5398943,-80.0125323,2.0,23,1,car dealers
4432,tT5mW_pwxtcKAnDdcqlTUw,"""Hess Paul F DMD""",,"""4156 Library Rd""",Pittsburgh,PA,15234,40.357226000000004,-80.028931,3.5,3,1,health & medical
4442,MjOFnVxoKeOikgBGTZ-UcA,"""Eat'n Park""",,"""7370 McKnight Rd""",Pittsburgh,PA,15237,40.5385647,-80.0112165,4.0,15,1,breakfast & brunch
4443,RhXKTksPWch75Bo1lpoLqQ,"""Taco Bell""",,"""9797 Mcknight Rd.""",Pittsburgh,PA,15237,40.585511,-80.03670600000001,2.5,3,1,fast food
4475,pPyg8s0O8JB7bDCaCj398w,"""East End Brewing Taproom""",Strip District,"""102 19th St""",Pittsburgh,PA,15222,40.4509048171,-79.9849490505,4.5,33,1,breweries
4481,zacTq2J8DAj4-ROHM_aRog,"""Clarissa Boutique""",South Side,"""1700 E Carson St""",Pittsburgh,PA,15203,40.428571999999996,-79.981864,4.5,11,1,shopping
4497,1LlGFhwtcw_QCuNV92eyAg,"""MedExpress Urgent Care""",Aspinwall,"""50 Freeport Rd""",Pittsburgh,PA,15215,40.491772999999995,-79.907924,2.5,7,1,urgent care
4498,UgN-AbW3E1t02roCnIoYIA,"""Eartique""",Squirrel Hill,"""2703 Murray Ave""",Pittsburgh,PA,15217,40.4287184,-79.92401240000001,5.0,3,1,hearing aid providers
4531,zaQWCvCcNj8HI4YcfLzmgw,"""Narcisi Winery""",,"""4578 Gibsonia Rd""",Gibsonia,PA,15044,40.609428620500005,-79.8944464195,4.0,58,1,food
4556,j8UUwx7bkPzO3Yi3SCA3PQ,"""Miniature Railroad & Village""",North Side,"""1 Allegheny Ave""",Chateau,PA,15212,40.4456892967,-80.018228148,5.0,3,1,local flavor
4616,eyMOizVAP258coeTZtcKLQ,"""Spa Life""",,"""1 Racquet Ln""",Monroeville,PA,15146,40.4329437,-79.7853033,4.0,3,1,day spas
4647,5fyROfD0I6Xd0pTqoOcL2A,"""Subway""",,"""3070 McIntyre Square Dr""",Pittsburgh,PA,15237,40.55162120000001,-80.0181627,3.5,3,1,sandwiches
4658,Q9OshdN7RVzC6w9T9aZurQ,"""De Novo Chiropractic & Health""",Downtown,"""707 Grant St, Ste 2708""",Pittsburgh,PA,15219,40.442583,-79.995222,5.0,4,1,active life
4689,eR_iL_uA5vgL0zTbg7JR6Q,"""Asian Cafe""",,"""4885 William Penn Hwy""",Murrysville,PA,15668,40.422178100000004,-79.6626625,4.0,15,1,restaurants
4701,DBtmJXpwS31E0cDZo7ypGw,"""Chop Wok & Talk""",Bloomfield,"""5404 Penn Ave""",Pittsburgh,PA,15206,40.4645835,-79.93619759999999,4.5,19,1,specialty schools
4707,QIahrchu9mUW8DGZla8c7w,"""Schorr Bakery""",,"""433 Perry Hwy""",Pittsburgh,PA,15229,40.5195763,-80.0324542,4.5,19,1,bakeries
4748,Bv3vpnP-LOqw-p8hk5Thmg,"""EAS Roofing""",,"""1049 Wiliam Flynn Hwy""",Glenshaw,PA,15116,40.517156899999996,-79.9535782,5.0,4,1,gutter services
4789,Iabd_rGdOvdpySBeluFs5w,"""Cardello Pizza""",,"""261 Moon Clinton Rd""",Pittsburgh,PA,15108,40.51268867,-80.2292787765,3.5,34,1,restaurants
4836,NXG2mhkFr_1AsRAvgJcT7Q,"""Pampered Pet""",,"""109 Dewalt Ave""",Pittsburgh,PA,15227,40.3653445,-79.98441820000001,4.5,8,1,pets
4845,GPoF-Bubt3r289NpTGAcsw,"""The Steer and Wheel""",Downtown,"""""",Pittsburgh,PA,,40.440556,-79.996111,4.5,18,1,food
4864,YlgtEY-SRQZZkPT54Tdbzw,"""Wagner's Restaurant""",,"""550 McKeesport Rd""",Elizabeth,PA,15037,40.2763037,-79.87904240000002,4.0,11,1,restaurants
4904,1WBGs0wJYK68UJ2DwUAI_A,"""Grapperia""",Lawrenceville,"""3801 Butler St""",Pittsburgh,PA,15201,40.467049700000004,-79.9644163,4.5,42,1,food
4973,EsIoHUg5_CMbGrJp_t4tqg,"""Avalon Alterations""",Avalon,"""620 California Ave""",Pittsburgh,PA,15202,40.501360999999996,-80.068536,5.0,4,1,arts & crafts
4994,brpJ1jYGH_Pgrx7dKIqesA,"""Carnegie Science Center""",North Side,"""1 Allegheny Ave""",Pittsburgh,PA,15212,40.4456737,-80.0180996,4.0,119,1,museums
4995,qELIf4gzE_vlteu7pO7TZg,"""Atria's Restaurant""",North Side,"""103 Federal St""",Pittsburgh,PA,15212,40.4470921252,-80.00404638100001,3.0,94,1,bars
4998,OZdyrjtRDat_RL3n5ku3pQ,"""Sincerely Yogurt""",,"""5375 William Flynn Hwy""",Gibsonia,PA,15044,40.6195682,-79.9463594,4.0,5,1,do-it-yourself food
5020,OCrIahNGIu0lipGuqiiApA,"""Day Volkswagen""",,"""1580 Golden Mile Hwy""",Monroeville,PA,15146,40.4308912,-79.71708029999999,3.0,8,1,hotels & travel
5059,P9ngIa0rOTh_P1BzpToEFQ,"""Blinking Gorgeous Artistry""",,"""345 Freeport Rd, Fl 2""",Aspinwall,PA,15215,40.538261999999996,-79.918707,5.0,10,1,eyelash service
5101,Tv2Hut47uZ-gg8ui6e66FQ,"""Hello Bistro""",,"""1000 Village Run Rd""",Wexford,PA,15090,40.6338259,-80.0573109,2.5,19,1,burgers
5109,61NPgdR5sMwAWw0CI78nBg,"""Starbucks""",Squirrel Hill,"""2345 Murray Ave, Ste 110""",Pittsburgh,PA,15217,40.4306657,-79.92308659999999,4.0,20,1,coffee & tea
5115,EEAtafGPtPhwERoM3onXuw,"""Panda Chinese Kitchen""",,"""590 W Pike St""",Canonsburg,PA,15317,40.2574515,-80.2041613,2.0,4,1,chinese
5133,UeeTpj80HsK2MsZLnL-BIA,"""Glat Auto Detailing and Rustproofing""",,"""725 25th St""",Ambridge,PA,15003,40.6063677428,-80.2252504368,4.5,3,1,automotive
5227,5p60nXyjQruKvEZix6ahVQ,"""Vallozzis Pittsburgh""",Downtown,"""220 5th Ave""",Pittsburgh,PA,15222,40.4411279,-80.0014571,3.5,93,1,bars
5250,4LiieRb-_r9pUCM0mKS9XA,"""Friendship Perk And Brew""",Bloomfield,"""300 S Pacific Ave""",Pittsburgh,PA,15224,40.4620069,-79.94066679999999,4.5,29,1,coffee & tea
5289,ZIFGOe-d4XQQLnsqXRyC3g,"""Trico Long Distance Movers""",South Side,"""""",Pittsburgh,PA,15203,40.4293034,-79.9724245,5.0,6,1,automotive
5408,ni1jWBn-fU_kKXj77YUpXw,"""Pat Catan's Craft Center""",,"""250 Mount Nebo Pointe Dr""",Pittsburgh,PA,15237,40.5351670412,-80.0667899475,4.0,4,1,shopping
5431,Qb4_LaaXHR9Gx5UvNd4VVw,"""City Collision Service Inc""",Strip District,"""3015 Liberty Ave""",Pittsburgh,PA,15201,40.458669,-79.97192690000001,4.5,13,1,automotive
5443,s9DbjcVealcMBNxGI_wK8w,"""Victoria's Secret Stores""",,"""1900 Washington Rd, Ste 232""",Pittsburgh,PA,15241,40.3443046,-80.0593828,4.0,4,1,fashion
5444,XSIvsz5RwrUZtZhZwPxjgw,"""Acqua Blu Medical Spa""",,"""1614 Washington Rd, Ste 102""",Pittsburgh,PA,15241,40.3525872,-80.05100390000001,2.0,8,1,health & medical
5448,5It12biyGxe2Dz6kkf7wGQ,"""Oriental Express""",,"""2610 Brandt School Rd""",Wexford,PA,15090,40.615056803200005,-80.0913698314,3.5,20,1,american (new)
5449,nzDlfPBEZDMJEsWw6KZhHw,"""Owl Cleaners""",,"""10562 Perry Hwy""",Wexford,PA,15090,40.61071210000001,-80.05372159999999,1.0,3,1,local services
5469,ckZg3KVwR9FrAR1KtTavEQ,"""Amato's Pizza""",Etna,"""376 Butler St""",Pittsburgh,PA,15223,40.497066700000005,-79.9436929,2.5,7,1,restaurants
5519,nq15wdCeJEy6iDIo77A6tg,"""Hampton Inn/pittsburg- wexford-sewickley""",Sewickley,"""2622 Wexford Bayne Rd""",Sewickley,PA,15143,40.613465000000005,-80.099009,2.5,3,1,hotels
5540,TeaOjHwZmKYlD9ce1l-8Ug,"""Bob's Garage""",,"""1372 Freeport Rd""",Pittsburgh,PA,15238,40.489578200000004,-79.8723566,3.5,29,1,nightlife
5549,IJYqKCfeM4ePy7oqxSah7Q,"""Pizza Hut""",,"""1235 Long Run Rd""",White Oak,PA,15131,40.336934,-79.8100027,2.5,3,1,pizza
5602,c1y77QPMdkSaomMPjGNXPw,"""Mattress Firm Monroeville East""",,"""3843 William Penn Hwy""",Monroeville,PA,15146,40.437002500000006,-79.78226629999999,5.0,4,1,shopping
5603,1f6wWD3iud8auBlYkQ9STg,"""Brew Burgh USA""",,"""2677A Monroeville Blvd""",Monroeville,PA,15146,40.43566679999999,-79.782462,3.5,3,1,beer
5604,YajT7NNbaexIbXpUuQ8a9A,"""Amili's Pizzeria""",,"""2816 Golden Mile Hwy""",Pittsburgh,PA,15239,40.4808667,-79.70475490000001,4.0,6,1,restaurants
5608,W53ifZHw5Wa7WljOQptcWQ,"""Dugan Maria DO""",Squirrel Hill,"""5889 Forbes Ave""",Pittsburgh,PA,15217,40.438269,-79.919622,3.5,3,1,health & medical
5648,rBnpbR-cfCD9CKy_ahCmsg,"""Nicky's Thai Kitchen""",North Side,"""856 Western Ave""",Pittsburgh,PA,15233,40.452180600000005,-80.0162337,4.0,361,1,thai
5697,ydWY2UIprQdPNOZFOXS70A,"""Wine and Spirits""",,"""200 Northtown Square""",Gibsonia,PA,15044,40.637811,-79.942227,3.0,3,1,beer
5738,VG-IXz6-8GYScy1A6b35aA,"""Dirty Harry's Bicycles""",,"""730 Allegheny River Blvd""",Verona,PA,15147,40.505776000000004,-79.843331,3.5,6,1,bikes
5739,6VsoOWTeIWmOxMp2Mect3A,"""Freedom Square Diner""",,"""148 Allegheny River Blvd""",Verona,PA,15147,40.4985919589,-79.8448828988,4.0,32,1,food
5756,F2b94rrPSnoOlJtGyCH4oQ,"""Safe Streets USA - ADT Authorized Dealer""",,"""""",Pittsburgh,PA,15235,40.4586216,-79.8184684,3.5,3,1,security systems
5757,6mkowJbicSV3-9LVjOabJA,"""Spectrum Local Movers""",,"""""",Pittsburgh,PA,15235,40.4586216,-79.8184684,4.0,5,1,packing services
5767,La-deTxOcGc6YDrm3xBNcQ,"""Phillip Injeian Violin Shop""",Downtown,"""821 Penn Ave""",Pittsburgh,PA,15222,40.443874,-79.998649,4.5,5,1,musical instruments & teachers
5784,GMuWEVS9hqsWLj5c5PUFkg,"""Jack's Custom Tailor Shop""",,"""5825 Library Rd""",Bethel Park,PA,15102,40.309494799999996,-80.032911,1.0,3,1,local services
5818,_T2Aa3Vf5t68PqqxvzoX0Q,"""Osteria Pasqualino""",,"""4430 William Penn Hwy""",Murrysville,PA,15668,40.42496,-79.66994,3.0,49,1,restaurants
5850,noLGRXHgtDCxeaHTWgIlnw,"""Jerry Kitman Fine Furniture""",,"""220 North Ave""",Pittsburgh,PA,15209,40.481221000000005,-79.97438199999999,2.0,4,1,interior design
5869,zm0z_Sep_3F6f5waYXjd6Q,"""Mr. Handyman of South Pittsburgh""",,"""""",Canonsburg,PA,15317,40.262570200000006,-80.1872797,5.0,3,1,carpenters
5910,UDF-ISFu8lIZDyWvoR7nLg,"""Denny's""",,"""7319 Mcknight Rd""",Pittsburgh,PA,15237,40.5384010405,-80.0120007992,3.0,20,1,coffee & tea
5913,4IO9anlf46sejlK3FIPGqw,"""Beasley Plumbing""",,"""7310 Burton St""",Pittsburgh,PA,15218,40.4173535,-79.8889139,1.0,3,1,home services
5915,TwZL8gjnAJ3DXXnyu-McHw,"""Fellinis Pizzeria""",,"""1229 Pennsylvania 51""",Jefferson Hills,PA,15025,40.310714600000004,-79.9367969,3.5,7,1,restaurants
5951,rKh_Nl5edIB9AevqnDmO6g,"""Fireside Inn""",,"""4214 Steubenville Pike""",Pittsburgh,PA,15205,40.4399090468,-80.0891526621,3.5,8,1,restaurants
5959,GGEeGKUez_pGqYXtk-sKvQ,"""Kelly O's Diner""",Strip District,"""2400 Smallman St""",Pittsburgh,PA,15222,40.4540188,-79.98122640000001,4.0,175,1,restaurants
5977,0v7DIprUj2KASqg5PwqhUg,"""Burrell Inn""",,"""2734 Leechburg Rd""",New Kensington,PA,15068,40.5904777,-79.7361609,4.0,6,1,restaurants
5989,HV-JygKEwo95ftIvuO-9fA,"""Cutting Edge For Hair With Style""",,"""158 E Pike St""",Canonsburg,PA,15317,40.259383899999996,-80.18199609999999,2.5,3,1,beauty & spas
6028,EvIjBWlnswf-7zBXJHB9kw,"""Dairy Queen of Bellevue""",Bellevue,"""4276 Ohio River Blvd""",Pittsburgh,PA,15202,40.487860299999994,-80.056033,2.5,3,1,food
6034,qpa8Y4VAMQKh8P5zqC5Y4g,"""Chick-fil-A""",,"""1620 Washington Rd""",Pittsburgh,PA,15241,40.351991999999996,-80.05153100000001,4.0,22,1,event planning & services
6059,uj9hDVeJE0r8DPJZwFulyw,"""Dairy Queen""",,"""200 Mall Cir Dr""",Monroeville,PA,15146,40.430609999999994,-79.79381,1.5,3,1,ice cream & frozen yogurt
6079,iVtZcsxEdkSzOg0QXFvRDg,"""Dawn Bierker - RE/MAX Real Estate Solutions""",,"""125 Hillvue Ln, Ste 100""",Pittsburgh,PA,15237,40.569884,-80.035871,5.0,15,1,real estate agents
6096,TqAl6eKXmSliEQHLq1ybrA,"""Happy Bellies""",Lawrenceville,"""5302 Butler St, Unit 1""",Pittsburgh,PA,15201,40.482069,-79.952118,4.0,6,1,food
6106,ELlk3Vol0lPKzwHxp-MoAw,"""Burger King""",,"""4885 William Flynn Hwy""",Allison Park,PA,15101,40.602044,-79.947507,3.5,4,1,burgers
6119,2RAJP_PuMkV-7UAC4Cqeuw,"""Dollar Bank""",Downtown,"""537 Smithfield St""",Pittsburgh,PA,15222,40.4413951,-79.99808459999998,2.0,3,1,banks & credit unions
6154,_VYUU5HPLYasd-xdKLimNA,"""Castle Place""",,"""331 Mount Lebanon Blvd""",Pittsburgh,PA,15234,40.369991,-80.034378,4.0,6,1,restaurants
6163,RmY539rfXW8AUzF4T7vmww,"""Marjorie B. Leof, DMD""",,"""55 Old Clairton Rd""",Pittsburgh,PA,15236,40.3393652373,-79.9638645312,3.5,3,1,cosmetic dentists
6181,baedk40VCeup34ltsDsAHA,"""China Express""",,"""465 Valleybrook Rd""",Canonsburg,PA,15317,40.2795101,-80.08429,4.0,5,1,chinese
6230,CrRMp1zHU0SVh9Uc3Orb3Q,"""Bellhops""",Oakland,"""342 Oakland Ave""",Pittsburgh,PA,15213,40.439132,-79.954355,4.0,36,1,home services
6232,-Q_Ax7QZ1wCbzyyX-3HOpQ,"""Lefty's""",Strip District,"""2021 Penn Ave""",Pittsburgh,PA,15222,40.451620399999996,-79.98359980000001,4.5,20,1,dive bars
6288,57fiE9rxPatqQy1J-p1aqw,"""Old Navy""",,"""8900 Covenant Ave""",Pittsburgh,PA,15237,40.568911799999995,-80.02181379999999,4.0,3,1,shopping
6291,EwyFweddyFZkLahsagFYTA,"""Waterfront Bike Rental""",Homestead,"""201 W Waterfront Dr""",Homestead,PA,15120,40.408291999999996,-79.918724,3.0,5,1,bike rentals
6305,iR6kEMdNRFc9QZUNTQo5Zg,"""Bruegger's Bagels""",,"""Pittsburgh International Airport""",Pittsburgh,PA,15231,40.495523337600005,-80.24141577489999,3.0,13,1,restaurants
6350,XrYAU-lCeIfDjKiaLMHvkg,"""Altar'd State""",,"""1000 Ross Park Mall Dr, Ste L13A""",Pittsburgh,PA,15237,40.5445685,-80.00875090000001,2.5,3,1,womens clothing
6383,ug2aVelkTHKpHUcYhyVHFw,"""Shop'n Save of Canonsburg""",,"""617 W Pike St""",Canonsburg,PA,15317,40.2558662,-80.2046395,3.0,4,1,food
6416,GqBP4UM_z2BAJz_ZUzdecA,"""Eastern Palace""",,"""1200 Corporate Dr, Ste 1""",Canonsburg,PA,15317,40.299569,-80.174926,4.0,9,1,chinese
6438,CI8bDyBpq_3P7gvi1ZKcIA,"""Wpxi Tv Channel 11""",North Side,"""11 Television Hl""",Pittsburgh,PA,15214,40.4623754,-80.006486,2.0,4,1,television stations
6519,Wf7qWkWUcSGUxgNDuIfu1A,"""Wilmerding YMCA""",,"""1 Memorial""",Wilmerding,PA,15148,40.387924600000005,-79.81230179999999,4.5,3,1,fitness & instruction
6533,OwnJZuSiWs839fNGZXALoQ,"""Kutter's Edge""",,"""16 W Pike St""",Canonsburg,PA,15317,40.2588958,-80.1870504,3.5,6,1,beauty & spas
6546,sBGuk-Dnz-23U6QolN3MlA,"""Groomers Touch""",,"""347 Delaware Ave""",Oakmont,PA,15139,40.517605100000004,-79.84234609999999,4.5,3,1,pets
6549,6IKgKHZci-8mUtnvGh4S2g,"""The Cascades Townhomes and Apartments""",,"""100 E West Dr""",Pittsburgh,PA,15237,40.506706099999995,-80.0219472,1.0,4,1,apartments
6566,TlDRcYA01RCADsafzauzRg,"""Alberto & Pasquale""",Squirrel Hill,"""5239 Butler St, Ste 301""",Pittsburgh,PA,15201,40.4339776,-79.9226824,4.0,22,1,sewing & alterations
6571,UA9YbIJRQE9QEHVb7bYIxg,"""Dollar Bank""",,"""700 Towne Square Way""",Pittsburgh,PA,15227,40.3668,-79.981359,3.0,4,1,banks & credit unions
6585,1-sDd7CzBGG47ElyIWTq_Q,"""1-800-GOT-JUNK? Pittsburgh City""",Lawrenceville,"""3739 Foster St""",Pittsburgh,PA,15201,40.4681359,-79.96621090000001,4.5,22,1,local services
6607,O4-yHHUYMYaiOVsgg8ImUw,"""Calabria's""",,"""3107 Library Rd""",Pittsburgh,PA,15234,40.3733822,-80.00629909999999,3.0,27,1,restaurants
6608,h5XqYtEmRuQ6yI0IyG6oNQ,"""Cibrone M & Sons Bakery""",,"""1231 Grove Rd""",Pittsburgh,PA,15234,40.36595820000001,-80.0132463,4.5,13,1,food
6626,ge52dKxkHxztn3Kg8ouxqQ,"""Pennsylvania Wine Cellar""",Homestead,"""241 W Bridge St""",Homestead,PA,15120,40.407758799999996,-79.9177046,4.0,14,1,arts & entertainment
6631,5bH-AX4nBtR1dyA7E7TcBg,"""Daring Escapes""",East Liberty,"""5877 Commerce St, Ste 135""",Pittsburgh,PA,15206,40.4595657,-79.9280203,4.0,14,1,arts & entertainment
6640,lnd23oqCb7v8lt9zd4K8sg,"""Gasoline Street Coffee""",Downtown,"""643 1st Ave""",Pittsburgh,PA,15219,40.4353844922,-79.995624918,4.5,23,1,food
6678,qfFKhuTFNE0KBCpb5ODK5w,"""Bronzed""",,"""1786 N Highland Rd""",Pittsburgh,PA,15241,40.352665,-80.0519505,4.5,3,1,beauty & spas
6689,21HC9HeDaWy3vBHb9AaGGA,"""Shelby's Station Bar and Restaurant Bridgeville""",,"""820 Mclaughlin Run Rd""",Bridgeville,PA,15017,40.356927,-80.106047,4.5,21,1,american (new)
6692,fjRKwGRjZO6ffMbXuBmZKw,"""Thirsty's Bar & Grill""",,"""2412 Ferguson Rd""",Allison Park,PA,15101,40.5549666,-79.9721783,2.5,14,1,bars
6701,69t9niG1SRUTX9yqyw6kRw,"""Cheyenne Veterinary Wellness & Surgery Center""",,"""3028 Brownsville Rd""",Pittsburgh,PA,15227,40.3802326,-79.97602940000002,4.5,7,1,pets
6709,JA2PMsBtqvAg6uKPZuSx5A,"""Kobold Watch""",,"""1817 Parkway View Dr""",Pittsburgh,PA,15205,40.4352204,-80.130472,1.5,6,1,watches
6730,oc62I4Man0_QU--mTm7msg,"""Primo Custom Tailoring""",,"""1118 Freeport Rd""",Pittsburgh,PA,15238,40.4877107,-79.8812343,2.0,5,1,local services
6799,-eBNBPNS01mupvyi8oAtxw,"""Healthy Ride Pgh""",Lawrenceville,"""3328 Penn Ave""",Pittsburgh,PA,15201,40.4621254,-79.9679377,2.5,12,1,bike rentals
6879,err0FvoRGGSqORd8WRtppA,"""Speakeasy""",Downtown,"""530 William Penn Pl""",Downtown,PA,15219,40.440591999999995,-79.996589,3.5,73,1,nightlife
6981,zL4rxA6xRJjHS2c3NNmFmw,"""Falling Timber""",,"""530 Bluff St""",Carnegie,PA,15106,40.398281,-80.089951,5.0,3,1,home services
6996,nL8_8Icehnn07NSmkToNuA,"""hhgregg""",,"""7401 McKnight Rd""",Ross Township,PA,15237,40.539817,-80.012528,2.0,7,1,shopping
6998,Px6FNVLlN9wZQ-uadZiIcw,"""Burger King Restaurant""",,"""10955 Perry Hwy""",Wexford,PA,15090,40.6175044,-80.0557,1.0,5,1,burgers
7016,i39--wZD6L9hm9Lg90Uziw,"""Central Diner & Grille""",,"""6408 Steubenville Pike""",Pittsburgh,PA,15205,40.4486993008,-80.15681107479999,4.0,406,1,restaurants
7030,GJM4XLPnoRNLV_5FwmRUsA,"""East Suburban Sports Medicine Center""",,"""4115 William Penn Hwy""",Murrysville,PA,15668,40.427100700000004,-79.68918740000001,5.0,3,1,health & medical
7053,ijLB6_VUIH4rSOELpmPXcw,"""Jemco Plumbing & Heating""",,"""1815 Pittsburgh St""",Cheswick,PA,15024,40.541171000000006,-79.795365,1.0,3,1,home services
7102,bGdsMEAf6cijRl-trr1iCg,"""The Skin Center Medical Spa""",,"""2275 Swallow Hill Rd, Ste 2400""",Pittsburgh,PA,15220,40.388753,-80.072858,2.5,8,1,health & medical
7114,nYFhYM9JQbWnxI3zEd-gug,"""Our Place Homemade""",,"""105 Middle Ave""",Wilmerding,PA,15148,40.395374600000004,-79.80313149999999,3.5,3,1,bakeries
7115,dQj5DLZjeDK3KFysh1SYOQ,"""Apteka""",Bloomfield,"""4606 Penn Ave""",Pittsburgh,PA,15224,40.4656355,-79.9493238,4.5,165,1,restaurants
7132,2OHASStsgre0tOBK5kXX6Q,"""Choice Respiratory Care""",,"""657 Morganza Rd""",Canonsburg,PA,15317,40.296032000000004,-80.158964,2.5,3,1,na
7157,pLZdC3a2YeymnsNvSiR7Vg,"""Pittsburgh Medical Associates, PC""",Banksville,"""2891 Banksville Rd""",Pittsburgh,PA,15216,40.40323,-80.040077,4.0,6,1,health & medical
7158,OQRrTe7TD5Pdawgq3cKw5A,"""Big Lots - West Mifflin""",,"""7005 Clairton Rd""",West Mifflin,PA,15122,40.345880799999996,-79.9400038,4.0,5,1,home decor
7159,qPwECfhVNXHKh3cnOsX4-Q,"""North Hills Goodwill Store""",,"""7221 McKnight Rd""",Pittsburgh,PA,15237,40.536952899999996,-80.01272,4.0,8,1,shopping
7168,AGztN3eVZPqEWXlDM1A2dw,"""Love n Spoonfuls""",,"""1800 Golden Mile Hwy""",Pittsburgh,PA,15239,40.446114324,-79.7129860849,4.5,6,1,venues & event spaces
7170,U358rUKA2D3qX-Y2PBMTgA,"""Tower Auto Sales Inc""",,"""200 Freeport Rd""",Pittsburgh,PA,15238,40.490198,-79.862325,3.5,9,1,car dealers
7189,1jPLv-vyjPSvtl2ntSfdgA,"""Boehmer Heating & Cooling""",Brookline,"""""",Pittsburgh,PA,15226,40.3900597,-80.01436559999999,4.5,26,1,contractors
7261,RK0FwQM9zsSd4IkRpNeuIg,"""Fort Pitt Motel""",,"""7750 Steubenville Pike""",Oakdale,PA,15071,40.4410586,-80.2095843,3.0,8,1,event planning & services
7271,oStZkgyXNfTeCcJy02-GTA,"""Randig Towing""",,"""445 North Ave""",Pittsburgh,PA,15209,40.4834014,-79.973208,3.0,4,1,automotive
7277,6iad9mskid9PdmjEguVZNA,"""Sunoco""",Brookline,"""1640 Saw Mill Run Blvd""",Pittsburgh,PA,15210,40.39647720000001,-79.998692,2.0,3,1,automotive
7282,SmkYLXEYhzwUZdS6TAevHg,"""Butcher and the Rye""",Downtown,"""212 6th St""",Pittsburgh,PA,15222,40.442334,-80.002066,4.5,677,1,nightlife
7305,UUBBPP19I288ykV9Iqr1jg,"""Berlin Street Food""",Garfield,"""""",Pittsburgh,PA,15224,40.467202,-79.94445259999999,4.0,20,1,food
7307,KFbUQ-RR2UOV62Ep7WnXHw,"""Westwood Bar & Grill""",,"""825 Commonwealth Ave""",West Mifflin,PA,15122,40.376674,-79.88248,3.0,4,1,american (traditional)
7322,PhnfLfqUi0hYbdMVbpgsIQ,"""Inner Space Bodywork""",,"""2101 Greentree Rd""",Pittsburgh,PA,15220,40.3905629,-80.0724221,5.0,3,1,beauty & spas
7325,oQ3ei5gfvIVW34XYG5Ki2w,"""Shults Certified""",,"""10537 Perry Hwy""",Wexford,PA,15090,40.610421,-80.0536137,2.0,4,1,car dealers
7327,vW9WldtS_zDa6LyAn5x3aw,"""Perfectly Polished""",,"""601 Ravenswood Ave""",Pittsburgh,PA,15202,40.5056836,-80.0517806,3.0,3,1,nail salons
7390,r-GVqwNY4pA3Hkxh_-Rf_Q,"""Saint Paul Cathedral""",Oakland,"""108 N Dithridge St""",Pittsburgh,PA,15213,40.4478049357,-79.94994444439999,4.5,3,1,churches
7437,UGaIul2tDd8T0jRfOGA--w,"""Oddball Pets and Aquariums""",Hays,"""262 Joseph St""",Pittsburgh,PA,15227,40.393966,-79.96909570000001,5.0,4,1,pet stores
7442,vSS_0GdftmU_ClRz_hwumg,"""AK Pipe Lining""",,"""3700 Old William Penn Hwy""",Murrysville,PA,15668,40.4276622631,-79.704621232,3.5,3,1,home services
7453,j4s9X08gDTZH3MwcByfCHQ,"""Pizza Pronto & Gyro House - Avalon""",Avalon,"""518 California Ave""",Avalon,PA,15202,40.502209,-80.0706483,4.0,27,1,italian
7455,QkRtMoVpYalmEWnshUATvw,"""Amy's Hallmark Shop""",,"""2377 Mountain View Dr""",West Mifflin,PA,15122,40.3445825,-79.94483570000001,4.0,3,1,flowers & gifts
7487,XaeCGHZzsMwvFcHYq3q9sA,"""Pizza Hut""",,"""4960 Library Rd""",Bethel Park,PA,15102,40.339938874,-80.0250088153,3.5,4,1,restaurants
7491,RThuRlhMdowhtY8vITEIzQ,"""Mineo's Pizza House""",Squirrel Hill,"""2128 Murray Ave""",Pittsburgh,PA,15217,40.4328561,-79.92325459999999,3.5,260,1,ice cream & frozen yogurt
7544,0H4GM-fHAyCBsz-47kk0HA,"""Monro Muffler Brake & Service""",,"""331 Cochran Rd""",Mt. Lebanon,PA,15228,40.382351493099996,-80.0526469946,4.5,7,1,oil change stations
7549,bhVReN50h-lLfgIWA5Ovgg,"""Penn Station East Coast Subs""",Bloomfield,"""4815 Centre Ave, Ste 102""",Pittsburgh,PA,15213,40.4536277,-79.94702559999999,3.5,27,1,cheesesteaks
7565,3JyqPFOCUHFczVSfiw518w,"""Kings""",,"""155 McMurray Road""",Pittsburgh,PA,15241,40.3253169,-80.06493359999999,2.5,15,1,breakfast & brunch
7613,n6_ah26nj9V6eo7PZNUQzg,"""Mama Rose""",Larimer,"""121 Mayflower St""",Pittsburgh,PA,15206,40.464046,-79.91521,4.5,7,1,restaurants
7617,vPgBiz-GvxM1_K7looxvPA,"""Luxury Nails""",,"""4655 William Flynn Hwy""",Hampton Township,PA,15101,40.5914929,-79.9481421,3.5,7,1,nail salons
7640,qb8TiKsNTUqq4P-u6zQLDg,"""Atria's Restaurant""",,"""4059 Washington Rd""",McMurray,PA,15317,40.265839,-80.1280336,3.5,42,1,food
7670,esNVuYj6R45VI_gVsiCBZQ,"""Visionworks""",Homestead,"""240 E Waterfront Dr, Space C""",Homestead,PA,15120,40.41107720000001,-79.9123903,3.0,8,1,optometrists
7676,A21FJqt8jIE6w0hdzmvnmg,"""Cafe Zinho""",Shadyside,"""238 Spahr St""",Pittsburgh,PA,15232,40.45780379999999,-79.92743829999999,4.0,78,1,restaurants
7678,7U73RqIg6JA0WThxWUV3uA,"""Jade Grille""",,"""670 Washington Rd""",Pittsburgh,PA,15228,40.38059570000001,-80.0448481,4.0,150,1,restaurants
7687,a4K5-gXtd9-RGfZZYwJSMQ,"""Prestige Delivery Systems""",Fairywood,"""100 Beechnut Dr""",Pittsburgh,PA,15205,40.450202000000004,-80.08761,1.0,4,1,local services
7689,9cuklQaqN2d3WA0Ef6jECg,"""Panera Bread""",,"""1500 Washington Rd""",Mount Lebanon,PA,15228,40.3573572094,-80.0519013405,3.5,14,1,food
7705,hFuhiLDa9uHjg4fZHjI8NQ,"""Envy Nail Spa""",Shadyside,"""221 South Highland Ave""",Pittsburgh,PA,15206,40.4583596,-79.9251298,3.5,93,1,beauty & spas
7711,6eBYh0NQ80cCAmC4ajlKuQ,"""BurghBurgers""",,"""3536 Saw Mill Run Blvd""",Pittsburgh,PA,15227,40.3723038,-79.982203,4.0,4,1,ice cream & frozen yogurt
7735,5ZE-thfwrinDHWFBfoZIvQ,"""Pittsburgh Rug Company""",Strip District,"""2835 Smallman St""",Pittsburgh,PA,15222,40.458283200000004,-79.97577779999999,5.0,4,1,carpet cleaning
7736,B0JdEQoQjr9oka-_YyGZ8g,"""Outback Steakhouse""",,"""9395 McKnight Rd""",Pittsburgh,PA,15237,40.5759448527,-80.0262372225,2.5,52,1,steakhouses
7751,iKG3BfTNOg4xy-agnV-eaA,"""Centers For Rehab Services""",South Side,"""3200 S Water St""",Pittsburgh,PA,15203,40.4248598,-79.959846,2.5,3,1,health & medical
7755,l2FDSzWlucjfpDvHlBllDg,"""Voller Dentistry""",,"""563 Epsilon Dr""",Pittsburgh,PA,15238,40.497774,-79.877481,5.0,3,1,health & medical
7758,kL5LI_GYZJkkP73wl0Qtlw,"""Portofino's Pizza & Pasta""",,"""3307 Saw Mill Run Blvd""",Pittsburgh,PA,15227,40.3750112,-79.9829582,3.5,17,1,restaurants
7760,TqL0ytKAucWdW2mR7EbayA,"""Tamarind""",Oakland,"""257 N Craig St""",Pittsburgh,PA,15213,40.4511441,-79.9519468,4.0,200,1,indian
7777,I1AbMN5cQ6Ikot3N4u046Q,"""Sleep Pittsburgh""",Homestead,"""401 E 8th Ave""",Homestead,PA,15120,40.4090188,-79.9073843,5.0,4,1,shopping
7789,rSjatGwSr86751cppmlBTA,"""Sharkey's Cuts for Kids""",,"""6527 Robinson Centre Dr""",Pittsburgh,PA,15205,40.4559335,-80.1611741,3.5,4,1,hair salons
7800,BjaSHf4D0OCcske1pZtoZg,"""Waterford Nevillewood Apartments""",,"""1900 Tee Ct""",Presto,PA,15142,40.39225820000001,-80.1026044,3.0,3,1,apartments
7811,SVviVlZ92AOtZ5sIkvyLyA,"""Fine Wine & Good Spirits""",Brookline,"""722 Brookline Blvd""",Pittsburgh,PA,15226,40.394145,-80.021078,3.0,3,1,beer
7816,nzQpJa-CxlrFHW6jtUuIDw,"""The Humble Barber Co.""",Brighton Heights,"""3598 Brighton Rd""",Pittsburgh,PA,15212,40.481676,-80.033524,5.0,19,1,barbers
7826,RPe_cSOxq_qkG-LbxBlOyw,"""Hyde Park Prime Steakhouse""",North Side,"""247 N Shore Dr""",Pittsburgh,PA,15212,40.446175,-80.0082771,4.0,147,1,restaurants
7839,NpWI6sfUds0oajjf6_pN6Q,"""Ken's Auto Service""",,"""2274 Tilbrook Rd""",Monroeville,PA,15146,40.411797,-79.7685319,5.0,3,1,automotive
7887,PUlSo6DvRHbBlJ04GvHwog,"""Fetch! Pet Care""",Sewickley,"""""",Pittsburgh,PA,15143,40.5593731,-80.1651854,5.0,20,1,pet sitting
7894,C8MsojGq8zuK31fnQF89Rw,"""Galia Fencing""",,"""""",Pittsburgh,PA,15239,40.49094229999999,-79.7287703,2.5,3,1,home services
7903,fnyVBTHEhi3cN1H8FM9UcA,"""Old Village Grill""",,"""6277 Saltsburg Rd""",Penn Hills,PA,15235,40.4841701066,-79.81517959140001,4.5,22,1,mediterranean
7940,bI635MOr8t-yQ6nm_LCC6Q,"""The Yards At 3 Crossings""",Strip District,"""2645 Railroad St""",Pittsburgh,PA,15222,40.4567275,-79.9794296,3.0,4,1,real estate
8034,0bjFYstj8USMzEV4ZQldjA,"""Redhawk Coffee""",Oakland,"""120 Meyran Ave""",Pittsburgh,PA,15213,40.440707700000004,-79.9586246,5.0,91,1,desserts
8060,oT8j7eMJsIVJpi5kv4Alyw,"""Karb King Karbs""",,"""10 Machinists Way""",Pittsburgh,PA,15205,40.447731,-79.996319,1.0,9,1,auto repair
8103,yhoCIkTwHihWejVqGYZ4rw,"""DiBella's Subs""",,"""6501 Steubenville Pike""",Pittsburgh,PA,15205,40.4479980038,-80.1587162912,3.5,26,1,restaurants
8111,XWRhaOGnRwHk-FICdbcCfA,"""Nancy's East End Diner""",,"""616 South Ave""",Pittsburgh,PA,15221,40.442175899999995,-79.8862475,4.0,40,1,diners
8141,RqmORv3974ZDC6Zh4nSQwg,"""Naturoll Creamery""",Lawrenceville,"""4318 Butler St""",Pittsburgh,PA,15201,40.4710728417,-79.9599277368,4.0,106,1,cupcakes
8146,ZHoTQbkhGcLw9Oq_r-TiZQ,"""Randyland""",North Side,"""1501 Arch St""",Pittsburgh,PA,15212,40.4580766,-80.0098045,5.0,49,1,museums
8149,Mc21oDOZlBu7wWaxOiYzDQ,"""A & S Landscaping""",,"""2150 Washington Rd""",Canonsburg,PA,15317,40.23837774,-80.17900356930001,2.0,4,1,landscape architects
8152,rlFEKTaUgQqN4O9ow3LO9w,"""Atria's""",,"""10 Old Clairton Rd""",Pittsburgh,PA,15236,40.3398124,-79.9654559,3.5,81,1,event planning & services
8198,VPaEJyi2hZJ6Bc2nBlhqEw,"""Food Shoppe""",Squirrel Hill,"""5878 Northumberland St""",Pittsburgh,PA,15217,40.4415325,-79.920606,4.5,11,1,food
8199,rqcknDxg8lZAFN76YU7-BQ,"""Row House Cinema""",Lawrenceville,"""4115 Butler St""",Pittsburgh,PA,15201,40.470045,-79.96115,4.5,45,1,arts & entertainment
8205,L3ysePkSGjp11VIcmA3A-Q,"""Buford's Kitchen""",,"""5980 University Blvd""",Moon,PA,15108,40.520315100000005,-80.2182092,3.0,56,1,southern
8226,Msl8wgBCV-pSKtOHV7YFvg,"""Sport Clips""",,"""1610 Cochran Rd""",Mount Lebanon,PA,15216,40.3917635827,-80.0608921051,3.0,6,1,beauty & spas
8258,jBxoNxh4OtXJT1yYOoomvQ,"""Empire Beauty School""",,"""320 Mall Blvd""",Monroeville,PA,15146,40.4345598408,-79.7851589136,1.0,3,1,vocational & technical school
8320,uNODzKIWuK0RL5BdWkyeAw,"""Bellisario's Automotive""",Oakland,"""3529 Blvd Of The Allies""",Pittsburgh,PA,15213,40.4348933,-79.95494029999999,5.0,4,1,auto repair
8321,165GRJEJ-Jfrzesw7l5oFA,"""The Great American Grill""",Oakland,"""3454 Forbes Ave""",Pittsburgh,PA,15213,40.439424,-79.959407,4.0,4,1,restaurants
8326,bAWQmZgMggH4HTJnVcpLPw,"""Moe's Southwest Grill""",,"""5432 Campbell's Run Rd""",Pittsburgh,PA,15205,40.447212437800005,-80.1576916601,3.0,23,1,tex-mex
8334,XfuquxszM3JqXwdzGYWZvA,"""Terrace on Fifth""",The Hill District,"""1014 5th Ave, Fl 4""",Pittsburgh,PA,15219,40.4385515,-79.9904322,2.5,6,1,lounges
8393,fTinoZylgiozO8-LRy4REg,"""Dairy Queen""",,"""1120 Lincoln Hwy""",North Versailles,PA,15137,40.377395299999996,-79.80210490000002,1.0,3,1,ice cream & frozen yogurt
8431,ibEeass-UhTMuO5-Y76VMQ,"""Magee Womens Hospital of UPMC""",Oakland,"""300 Halket St""",Pittsburgh,PA,15213,40.4375401,-79.9603989,3.5,10,1,health & medical
8453,WjkjrsOzMAQ2wgY9tVyS0Q,"""QDOBA Mexican Eats""",Oakland,"""3712 Forbes Ave""",Pittsburgh,PA,15213,40.441276422899996,-79.9570812285,3.0,35,1,restaurants
8455,4R6NJhiq_t91E3W72ou7YA,"""Friendship Suites""",Friendship,"""301 Stratford Ave""",Pittsburgh,PA,15232,40.460781,-79.933116,4.0,3,1,event planning & services
8524,bmi0yAH94XpOqbMOrMlzrQ,"""The Barbers Inn""",East Liberty,"""5744 Baum Blvd""",Pittsburgh,PA,15206,40.4586344,-79.9321723,3.5,8,1,barbers
8526,0-nKBUyFdYAbq0PnByIabA,"""Fox Chapel Dry Cleaners""",,"""1200 Old Freeport Rd""",Pittsburgh,PA,15238,40.488065899999995,-79.8782485,3.5,5,1,dry cleaning
8554,aeomionBr_VTsIg119vtSw,"""Pastitsio""",Lawrenceville,"""3716 Butler St""",Pittsburgh,PA,15201,40.466611900000004,-79.9642428,4.0,91,1,restaurants
8575,NbEI-3hWnOcRNRJ6qIktTQ,"""Shooti's Bar & Grille""",,"""100 J Boyce Park Dr""",Pittsburgh,PA,15239,40.477732200000005,-79.7448363,4.0,4,1,chicken wings
8679,Jw9mNU1ibHioRdyGFTafYg,"""Giovanni's Pizza & Restaurant""",The Hill District,"""1504 5th Ave""",Pittsburgh,PA,15219,40.43846,-79.984796,4.0,13,1,nightlife
8686,Is-_AVNBzjTWwB6uq0c5GA,"""Five Guys""",,"""160 Millers Run Rd""",Bridgeville,PA,15017,40.3580265,-80.1205592,3.0,5,1,burgers
8705,AtMx_q5Uok82I5HtQNDd0Q,"""Suds & Subs""",,"""704 Chartiers Ave""",Mc Kees Rocks,PA,15136,40.465832299999995,-80.0615113,3.0,5,1,chicken wings
8723,pQpeWdPNW26-Q43ZqOhjqg,"""Questburgh Escape Rooms""",South Side,"""30 S 6th St""",Pittsburgh,PA,15203,40.429849961900004,-79.99395446189999,4.5,23,1,escape games
8776,Rb6HkgWHI80hZhNDZ7Wp9g,"""SportClips""",,"""10 Old Clairton Rd, Ste 9A, Bill Green Shopping Ctr""",Pittsburgh,PA,15236,40.339901624,-79.96540694689999,3.0,6,1,hair salons
8802,Sjp_uQma7EWZVDPdB1sXoQ,"""Steel Valley Express Care""",Squirrel Hill,"""4630 Browns Hill Rd""",Pittsburgh,PA,15217,40.415265600000005,-79.9239297,4.5,18,1,doctors
8819,Edr38MqJjlGdI9iyIzYjzg,"""ASCEND Pittsburgh""",South Side,"""2141 Mary St""",Pittsburgh,PA,15203,40.4262792,-79.9755136,4.5,13,1,yoga
8838,Idow0ymZ7ptpoeVPwzqOPQ,"""The Flame BBQ""",,"""1805 Babcock Blvd""",Pittsburgh,PA,15209,40.5015764,-79.9832494,3.0,20,1,restaurants
8861,yIMZ8XeGJePfYWr7BBNzww,"""Maldini's Taste of Italy""",,"""1900 Monongahela Ave""",Pittsburgh,PA,15218,40.421732,-79.89058399999999,3.5,10,1,pizza
8900,8M66zLhCWIqtZOdHU60arQ,"""Bass Wolfson Pediatrics""",Squirrel Hill,"""5608 Wilkins Ave""",Pittsburgh,PA,15217,40.443814,-79.927242,3.5,3,1,health & medical
8944,Fvwpj5He6HS0FTUDuQAAWA,"""Gurtner Stephen M, DMD""",,"""429 Cochran Rd""",Pittsburgh,PA,15228,40.384322999999995,-80.052708,3.5,5,1,health & medical
8964,QYIXeru0ptw9v9sShZwaVg,"""PNC YMCA""",Downtown,"""236 Fifth Ave""",Pittsburgh,PA,15222,40.4409475,-80.0010569,4.0,13,1,active life
8978,ZYL14FvffzTKU9BpXQt79Q,"""Hello Bistro""",Downtown,"""292 Forbes Ave""",Pittsburgh,PA,15222,40.440093,-80.0008532,3.0,90,1,salad
8983,_GarnSDjP17PMu_z2-GGCA,"""Vape Inn On Carson""",South Side,"""2336 E Carson St""",Pittsburgh,PA,15203,40.428030799999995,-79.97161609999999,4.0,8,1,hotels & travel
9001,tma5ihZ-bOSETWpCFU_Y-A,"""Shop N Save""",West View,"""184 Rochester Rd""",West View,PA,15229,40.5198156,-80.01809809999999,3.5,5,1,grocery
9021,fPjcOmoXikZKk_af3dErGA,"""United Airlines""",,"""1000 Airport Blvd""",Coraopolis,PA,15108,40.4957465,-80.256206,2.5,23,1,hotels & travel
9034,KqhFnEQhpR6uHWvW4v_zyQ,"""Pittsburgh Black Car""",Polish Hill,"""3223 Brereton St""",Pittsburgh,PA,15222,40.456883000000005,-79.96546109999998,5.0,8,1,transportation
9055,1kvNiRkJPgKOx5YoQnNxOA,"""One Brilliant""",Aspinwall,"""12 Brilliant Ave""",Pittsburgh,PA,15215,40.489326,-79.900587,4.5,3,1,fashion
9065,S-WbBty-kGOO3Fmwx3Jmlw,"""Pink Box Bakery Cafe""",Squirrel Hill,"""2104 Murray Ave""",Pittsburgh,PA,15217,40.4333842482,-79.9231549469,4.0,76,1,bakeries
9068,dQmWk3dqZW3urWemHmjVAA,"""Frost & Co Diamonds""",Downtown,"""717 Liberty Ave, Ste 212""",Pittsburgh,PA,15222,40.44271079999999,-79.99887240000001,4.0,7,1,shopping
9078,omWaVK0lzIcA4lk_rBebbw,"""Sweet Berry""",Oakland,"""115 Meyran Ave""",Pittsburgh,PA,15213,40.4409588,-79.9586082,2.5,7,1,desserts
9084,RTco8cv4Q7HKev_PrHGhjw,"""Manorcare Health Services-Monroeville""",,"""885 Macbeth Dr""",Monroeville,PA,15146,40.4253817,-79.7571455,2.0,3,1,rehabilitation center
9104,xlCP_iXi1d5rUG6hHMZuTw,"""East End Veterinary Medical Centre""",Shadyside,"""5875 Ellsworth Ave""",Pittsburgh,PA,15232,40.4578784,-79.9286127,3.5,26,1,veterinarians
9117,soTckoprAbi2TlfqNInxeA,"""Amtrak""",Downtown,"""1100 Liberty Ave""",Pittsburgh,PA,15222,40.444228,-79.9922328,3.0,22,1,hotels & travel
9121,fUx8lGTThAqqEcR0oQZjpw,"""7-Eleven""",Downtown,"""643 Liberty Ave""",Pittsburgh,PA,15222,40.442526814699995,-79.9999760333,2.0,3,1,convenience stores
9151,Ce7qJ9o4zOLnL2ZKyV9hoQ,"""US Post Office""",,"""11650 Penn Hills Dr""",Pittsburgh,PA,15235,40.4642860062,-79.82600160060001,1.5,3,1,shipping centers
9152,9y7fhfHP8ClcYXJ4YPg7Yw,"""Stumpf Moving & Storage""",,"""199 Purity Rd""",Pittsburgh,PA,15235,40.4451709,-79.83039670000001,2.5,5,1,movers
9153,krc4tD-xlMKDdjCJVjG42g,"""Zekes Coffee Drive Thru""",East Liberty,"""6314 Broad St""",Pittsburgh,PA,15206,40.460305,-79.918481,4.5,3,1,food
9211,-0dWjxaPKrXAn8urSnkSLA,"""Sandcastle Water Park""",Homestead,"""1000 Sandcastle Dr""",Homestead,PA,15120,40.398453,-79.92684399999999,3.0,32,1,amusement parks
9224,JEqM8xXhKumU5AfhmsiD8w,"""Bean Curd Chinese Restaurant""",,"""4147 Washington Rd""",Canonsburg,PA,15317,40.262559499999995,-80.13208940000001,4.0,36,1,chinese
9235,fPu37BiMMM8CctEzQIUHOA,"""Sinbad Mediterranean Grill""",,"""200 Mall Plz Blvd, Ste A22""",Monroeville,PA,15146,40.4299701178,-79.79445449970001,4.5,14,1,middle eastern
9273,AkL6Ous6A1atZejfZXn1Bg,"""Petagogy""",Shadyside,"""5880 Ellsworth Ave""",Pittsburgh,PA,15232,40.457662899999995,-79.9280738,5.0,26,1,pets
9285,vfH_-o6_Gn0WE7z4fGBJ_A,"""Couch Brewery""",Larimer,"""1351 Washington Blvd""",Pittsburgh,PA,15206,40.4694536,-79.9090465,4.0,12,1,pubs
9317,IxYQJxQAoIvw4gm4SNBSkA,"""Guardian Storage""",,"""350 Old Haymaker Rd""",Monroeville,PA,15146,40.44769,-79.759522,4.5,3,1,self storage
9320,75YprnV6eykU8K8N4aIwyg,"""Mr Tire Auto Service Centers""",,"""7400 Mcknight Rd""",Pittsburgh,PA,15237,40.5402396519,-80.0115582347,3.5,12,1,automotive
9322,J80Z4pdVGC2MkZsrXHikLg,"""All God's Creatures""",Garfield,"""5121 Penn Ave""",Pittsburgh,PA,15224,40.46501,-79.9419707,4.5,16,1,pet services
9347,di_tqAB6F8AsTnBFtvqs-w,"""McDonald's""",,"""300 Market Pl Dr""",Oakdale,PA,15071,40.440894899999996,-80.2393893,1.5,8,1,restaurants
9386,lPh04gQTsF77fQnCNSyfHw,"""uBreakiFix""",Bloomfield,"""4718 Liberty Ave""",Pittsburgh,PA,15224,40.461581,-79.949413,4.5,81,1,mobile phones
9400,_4Oe9V-qTpU5iemM9bphlA,"""Goodyear Auto Service Center""",Downtown,"""800 Fort Duquesne Blvd, Ste 1""",Pittsburgh,PA,15222,40.4446143588,-79.9993437231,3.0,10,1,tires
9407,H3WFI9K5zkgQtCcrCvKMvQ,"""Larry Suher & Associates""",,"""4328 Old William Penn Hwy""",Monroeville,PA,15146,40.442104,-79.77470500000001,5.0,4,1,beauty & spas
9483,rcccYhFcEBa8Tvkkf-zyhA,"""SpringHill Suites Marriott""",North Side,"""223 Federal""",Pittsburgh,PA,15212,40.4485641,-80.0046163,3.5,43,1,event planning & services
9484,WOrI7MlX3CgEVk98y7Gnug,"""Einstein Bros. Bagels""",,"""3855 Washington Rd""",Canonsburg,PA,15317,40.273230600000005,-80.1269319,3.0,4,1,food
9495,FQF7F9U-_TCNIwtsOlbV1A,"""DaBuzis""",,"""3547 Washington Ave""",Finleyville,PA,15332,40.2525694,-80.0033452,4.5,7,1,italian
9551,ukB1l0o0MfPtE5GoUzJnIg,"""The Garden Cafe""",Downtown,"""600 Penn Ave""",Pittsburgh,PA,15222,40.442648999999996,-80.001427,5.0,6,1,american (traditional)
9566,Kg00kM0jvMYKKZYrh7Yvrg,"""The South Park Clubhouse""",,"""2200 Brownsville Rd""",South Park,PA,15129,40.302003899999995,-79.9956542,2.5,26,1,restaurants
9581,rsoj_tfOu3H7L1nQ3QYhkQ,"""Coldwell Banker Real Estate Services""",Squirrel Hill,"""5887 Forbes Ave""",Pittsburgh,PA,15217,40.4382854,-79.91979070000001,4.5,6,1,real estate services
9606,ZP1KGjhtQ-C1d_z3ItL8jQ,"""S.W. Randall Toyes & Giftes""",Downtown,"""630 Smithfield St""",Pittsburgh,PA,15222,40.442167600000005,-79.9968765,4.5,19,1,shopping
9607,XzV11KRNHlUaIweyKH21wA,"""Pittsburgh Popcorn""",Downtown,"""547 Liberty Ave""",Pittsburgh,PA,15222,40.441821999999995,-80.002249,4.0,27,1,popcorn shops
9641,ixS7WPmm_zKmN9UE2nKIvg,"""The Joint Chiropractic""",,"""8874 Covenant Ave""",Pittsburgh,PA,15237,40.5689651,-80.0232359,5.0,5,1,chiropractors
9676,eBlScujqGYHsv49o1QPUzA,"""Thrifty Car Rental""",,"""1000 Airport Blvd""",Pittsburgh,PA,15231,40.4956799,-80.2562685,2.0,5,1,hotels & travel
9691,cNCXUYQd3kFR_AyfjTejQQ,"""Lot 17""",Bloomfield,"""4617 Liberty Ave""",Pittsburgh,PA,15224,40.4625595,-79.9501667,4.0,98,1,restaurants
9721,TdTl_T42gbewHCMQVqZ_xA,"""Wendy's""",,"""5055 Library Rd""",Bethel Park,PA,15102,40.3382258751,-80.0254753638,1.5,10,1,restaurants
9764,3k_GkQIxkBNu5vkI-EPdaA,"""Bill Ballon Automotive""",Lawrenceville,"""164 39th St""",Pittsburgh,PA,15201,40.46826970000001,-79.9652228,5.0,5,1,auto repair
9806,9YZEuN2bsn8-_nducYnGUA,"""Polo Club Apartments""",,"""916 Beaver Grade Rd""",Coraopolis,PA,15108,40.5110514,-80.21579870000001,1.5,5,1,real estate
9857,9OkrzUD58_yqPtJ2NI_vqg,"""Firestone Complete Auto Care""",,"""397 Mall Circle Dr""",Monroeville,PA,15146,40.4299541,-79.7911615,4.0,4,1,oil change stations
9858,WjTrlAyjzjI2VXQe9nSRRA,"""Mister Sewer""",,"""3003 S Park Rd""",Bethel Park,PA,15102,40.326862,-80.04276800000001,5.0,3,1,home services
9863,xNN30MfvylG-Ud9yVgg2_g,"""Bear Hug Massage & Spa""",,"""2550 Brownsville Rd, Ste 2""",South Park Township,PA,15129,40.293413,-79.99674909999999,5.0,5,1,beauty & spas
9864,w6bgbLm5Q7RMILKzIieDzA,"""Super Vacuums""",Lawrenceville,"""4323 Butler St""",Pittsburgh,PA,15201,40.471352,-79.9601969,2.5,6,1,appliances & repair
9865,9sKLopAUoaIyKN-qZlfPhw,"""Associated Electric""",Lawrenceville,"""5427 Butler St""",Pittsburgh,PA,15201,40.483509000000005,-79.95052,2.5,5,1,electricians
9917,HO1nuPD5-m7swsxJn4g7rg,"""Apple Cookie & Chocolate Company""",,"""501 Braddock Ave""",Turtle Creek,PA,15145,40.4040581,-79.8693435,4.5,3,1,chocolatiers & shops
9932,F9IJ3EddoyW89O0DFikPTQ,"""Sunseri Jimmy & Nino""",Strip District,"""1901 Penn Ave""",Pittsburgh,PA,15222,40.450964,-79.984628,4.0,40,1,restaurants
9935,gFAM3DwY0snYGujBmR-xHQ,"""TGI Fridays""",,"""Pittsburgh Intl Airport""",Pittsburgh,PA,15231,40.4957788213,-80.2465653419,3.0,21,1,nightlife
9960,CP7TRCpeBr1sTtWqcfRHxQ,"""McDonald's""",,"""225 Mount Lebanon Blvd""",Pittsburgh,PA,15234,40.368679,-80.03771390000001,2.0,4,1,fast food
9980,K4kULMcPWitiKAwmk90dTA,"""Picasso Pizza & Pasta""",,"""1770 Pine Hollow Rd""",Kennedy Township,PA,15136,40.4764453524,-80.1007610438,3.5,16,1,specialty food
9992,efK5mjVPxdmqFZT06S4dzA,"""McDonald's""",,"""1010 4th Ave""",Coraopolis,PA,15108,40.517925700000006,-80.1630818,3.5,9,1,fast food
10059,2KgHNJXqG5Laoz0-rdgmHg,"""L & C Nail Spa""",,"""3747 William Penn Hwy, Ste 17""",Monroeville,PA,15146,40.4373677,-79.78644229999999,2.5,11,1,beauty & spas
10060,O_EC0gFko7gzNqgppmyLEA,"""Rocky's""",,"""602 Willruth Dr""",Allison Park,PA,15101,40.5439278,-79.9632032,3.5,3,1,american (new)
10070,L95ppCbcWAt4LUWrCiEvPg,"""The Capital Grille""",Downtown,"""301 5th Ave""",Pittsburgh,PA,15222,40.4407195879,-80.0000391542,4.0,227,1,steakhouses
10089,FfJSiMzvEA8eOmC9KRDs0Q,"""Destinta Theatres At Pittsburgh Plaza""",,"""1701 Lincoln Hwy""",North Versailles,PA,15137,40.371181,-79.7855712,4.0,10,1,cinema
10101,h8uPVhBCns0paCSLOGMyIw,"""Pittsburgh Kettlebell & Performance""",Greentree,"""1002 Greentree Rd, Ste 200""",Pittsburgh,PA,15220,40.41734,-80.04560699999999,4.5,10,1,active life
10118,fMdnlYyN5EMhafyE3dGTFQ,"""Pizza Palermo""",,"""7615 Saltsburg Rd""",Pittsburgh,PA,15239,40.476307,-79.778563,4.0,11,1,pizza
10119,rgnvT2gHHfW_jW1ZbIa_-g,"""Coffee Buddha""",,"""964 Perry Hwy""",Pittsburgh,PA,15237,40.537498,-80.036048,4.0,72,1,coffee & tea
10142,kE2PsM7ZFJaEyjDJlcx5Vw,"""Smoke Cigar Shop & Lounge""",,"""1597 Washington Pike, Ste A16""",Bridgeville,PA,15017,40.3828646,-80.0951019,4.0,10,1,tobacco shops
10172,ih_bb1SaYvsMYfdykhYh2g,"""Wheelfish""",,"""635 Sangree Rd""",Pittsburgh,PA,15237,40.539409899999995,-79.99166600000001,4.0,53,1,nightlife
10175,yGdO0huBvnAhyEX7fZO7og,"""Honeymoon Chinese Restaurant""",,"""6348 Library Rd""",South Park,PA,15129,40.290431829,-80.028886148,3.5,18,1,chinese
10240,rWDUNoTQTYfYgbKXwI8i2A,"""Friendly Paws Pet Resort""",,"""5647 Steubenville Pike""",McKees Rocks,PA,15136,40.450367,-80.13210500000001,3.5,6,1,pets
10262,LEgVcgFe5CeernV3tADshg,"""Michael Johnson's Auto Center""",,"""161 Perry Hwy""",Pittsburgh,PA,15229,40.5145906,-80.02976899999999,5.0,11,1,auto repair
10276,_in6pQUIS1Ec57MXTPn7KQ,"""Bob Evans""",,"""3737 William Penn Hwy""",Monroeville,PA,15146,40.435532,-79.788297,2.5,32,1,restaurants
10277,opjEyudWKz_AJreQs959Aw,"""Labriola's Italian Market""",,"""4039 Monroeville Blvd""",Monroeville,PA,15146,40.435608,-79.768917,3.5,14,1,delis
10322,fPrWKd45pWhHCkojHRb_cw,"""Nature's Kitchen""",,"""Pittsburgh International Airport""",Coraopolis,PA,15108,40.495884999999994,-80.256182,2.0,17,1,restaurants
10345,kIN8TC2pG4mQw4Pj1RserA,"""The Dentistry""",Greentree,"""300 Fleet St""",Pittsburgh,PA,15220,40.421135,-80.0482339,3.0,9,1,oral surgeons
10370,DUuZjarJ7vOHJNEHNI0WUw,"""Anthony Jr's Restaurant & Pizzeria""",,"""1024 5th Ave""",Coraopolis,PA,15108,40.516938200000006,-80.1634558,3.5,36,1,food
10382,tJKnNRV534BIoX18jjq_Zw,"""Evergreen Cafe""",Point Breeze,"""7330 Penn Ave""",Pittsburgh,PA,15208,40.448221999999994,-79.8984433,4.5,3,1,food
10404,FX-qwxJMi7-2pt381NTgHg,"""Auto Critic of Western PA""",,"""331 Coraopolis Rd""",Coraopolis,PA,15108,40.502629,-80.126987,4.0,5,1,automotive
10431,o5EYswyzjGLLVLkMzpHv5Q,"""Portman Farms Market""",,"""3249 Washington Pike""",Bridgeville,PA,15017,40.3406094,-80.1198224,4.5,12,1,restaurants
10470,L89raIafMrGvIrbYJQwJMA,"""Party City""",,"""Great Southern Shopping Ctr""",Bridgeville,PA,15017,40.3687328612,-80.1061435358,1.0,3,1,party supplies
10515,0EyRe-VkW8gYxxZ7NCQXeQ,"""Fox's Pizza Den""",,"""1204 Merchant St""",Ambridge,PA,15003,40.5948646,-80.23028470000001,4.5,5,1,restaurants
10592,idM0hDe_Pp2IeYgH0DIIBw,"""The Big Idea Bookstore and Cafe""",Bloomfield,"""4812 Liberty Ave""",Pittsburgh,PA,15224,40.46013920000001,-79.9467527,4.5,18,1,food
10598,9mxf1225T9KghuQueNvWVw,"""Philip Pelusi""",Squirrel Hill,"""1814 Murray Ave""",Pittsburgh,PA,15217,40.436507,-79.92318,3.0,35,1,barbers
10600,7dCLo-h_6ty7OKeACr7JbQ,"""Laundry Room Towne Cleaners""",,"""1637 Braddock Ave""",Pittsburgh,PA,15218,40.425920500000004,-79.88935529999999,3.0,3,1,laundry services
10611,K3p2iyJ8xRU5-5NlvoxiFA,"""Carnegie Museums of Pittsburgh""",Oakland,"""4400 Forbes Ave""",Pittsburgh,PA,15213,40.444010999999996,-79.950361,4.5,48,1,wedding planning
10612,uEf6PaCo9Jf29v8Dlv3cYQ,"""Enrico's Hair Cutting for Men""",Oakland,"""3516 5th Ave""",Pittsburgh,PA,15213,40.4408,-79.959275,4.5,27,1,beauty & spas
10623,VjXozpy3I2X8XeYaK9VD6Q,"""Cellular Sales, Verizon Wireless Authorized Retailer""",,"""309 Lancaster Ave""",Frazer,PA,19355,40.0399271,-75.5485493,3.0,4,1,electronics
10643,yi35CJUGpwre_ybuOXYdiQ,"""Salon Cercone""",Shadyside,"""5894 Ellsworth Ave""",Pittsburgh,PA,15232,40.4580981,-79.92755749999999,4.5,22,1,hair salons
10684,RMMfPhpCXbuGGjUU1yX5oQ,"""Vietmeier Golf Center""",,"""1953 McKees Rocks Rd""",McKees Rocks,PA,15136,40.464006458,-80.0991135733,3.5,6,1,golf lessons
10687,y3uEq-adz-6FT_1Z4S8yIQ,"""Clean Car Express""",Homewood,"""970 Washington Blvd""",Pittsburgh,PA,15206,40.461649,-79.90553,4.0,29,1,automotive
10762,VWtI26Mu69IrG0nugb23lg,"""Sprint Store""",,"""4885 Mcknight Rd""",Pittsburgh,PA,15237,40.5294316317,-80.00979371449999,2.5,6,1,mobile phones
10778,DSM7sq3ellDcqw_CoFK1uA,"""Weddell-Ajak Funeral Home""",Aspinwall,"""100 Center Ave""",Aspinwall,PA,15215,40.4908643,-79.9046978,3.5,3,1,local services
10825,JmdgFq9sgXUIzeqalwrTRA,"""Dairy Queen""",Dormont,"""1691 McFarland Rd""",Pittsburgh,PA,15216,40.3959782,-80.0464983,3.5,12,1,restaurants
10856,wk3wGDfJb1V-ciZpyhoNAA,"""Bic's Pub and Grill""",,"""560 State Road 130""",Trafford,PA,15085,40.3896439,-79.72692579999999,4.5,7,1,pubs
10876,rsFAIWdhhE7VhfWQlexmZA,"""Five Below""",,"""4088 William Penn Hwy""",Monroeville,PA,15146,40.43725070000001,-79.7673563,4.0,4,1,shopping
10883,oxxcmHKPb7jqVP15zC0j5w,"""Eden's Market""",,"""99 Alfred St""",Mount Lebanon,PA,15228,40.3806685418,-80.0441339335,3.5,6,1,nutritionists
10928,TU3mPzR2brUd0YCa-_RTmg,"""Mt Lebanon Public Library""",,"""16 Castle Shannon Blvd""",Pittsburgh,PA,15228,40.377009,-80.045264,4.0,5,1,public services & government
11012,TY_kMmCM_3JSs14NFUvO_g,"""Nak Won Garden""",Friendship,"""5504 Centre Ave""",Pittsburgh,PA,15232,40.4565667,-79.936316,3.5,81,1,korean
11013,e9LeH6n5fEDoPjL9Z80plw,"""Yoga Flow""",Shadyside,"""5433 Walnut St""",Pittsburgh,PA,15232,40.4512027,-79.9341413,4.5,29,1,active life
11050,B-eykwifCt0thFCMS0EGow,"""Pillar To Post Home Inspectors""",,"""322 Mall Blvd, Ste 303""",Monroeville,PA,15146,40.43625479999999,-79.7679464,5.0,3,1,local services
11051,1TGti2jN5PstqlHelBBfNw,"""Five Guys""",,"""3845 Northern Pike""",Monroeville,PA,15146,40.4385940858,-79.77761568220001,4.5,23,1,restaurants
11160,APIw9yWPrc8VJ5jHVdnAyQ,"""Cafe Nikos""",Mt. Washington,"""212 Shiloh St""",Pittsburgh,PA,15211,40.430334,-80.00756779999999,3.5,11,1,nightlife
11167,ZCi8zZG1-XyRuUB-8286wA,"""Moda""",Shadyside,"""5401 Walnut St""",Pittsburgh,PA,15232,40.4508459,-79.93528140000001,3.5,6,1,shoe stores
11180,nwjIvTxJt2GpMoKzuKWIBQ,"""McDonald's""",Beechview,"""2518 W Liberty Ave""",Pittsburgh,PA,15226,40.3988343,-80.026459,2.5,14,1,fast food
11201,FhVWR_5arRxtAfX_CPkgng,"""Guitar Center""",,"""1020 Park Manor Blvd""",Pittsburgh,PA,15205,40.452509,-80.16212900000001,4.5,8,1,musical instruments & teachers
11216,2_7lYF6P2cYKnSiPhhVyPQ,"""Orbit Inn""",,"""1327 Merchant St""",Ambridge,PA,15003,40.5963269148,-80.2308549732,3.5,3,1,nightlife
11229,kM6QKCdQzqZYzl5reaPiSw,"""Revival Chili""",,"""""",Pittsburgh,PA,15106,40.408851399999996,-80.1149414,4.0,6,1,food
11237,GA2vnY1hyXTIKVXOmkXa5Q,"""Things Remembered""",,"""Ross Park Mall""",Pittsburgh,PA,15237,40.5432756,-80.0101594,1.0,3,1,na
11259,EzB40zduHHO_S-F-AjaBAg,"""Verizon Wireless""",Larimer,"""122 Bakery Square Blvd""",Pittsburgh,PA,15206,40.4565115965,-79.91519341729999,2.0,5,1,mobile phone accessories
11269,My5j-mKm1k3CIeNu5T8lhw,"""Milestone Tattoo Studio""",Dormont,"""1368 Tennessee Ave""",Pittsburgh,PA,15216,40.3944985,-80.0342561,5.0,3,1,piercing
11273,w1s-nOkqgo__sPZAZO9fRQ,"""Level 20 Sports Bar Restaurant""",,"""1033 Paxton Dr""",Bethel Park,PA,15102,40.3365784,-80.02408670000001,3.0,29,1,sports bars
11366,7tHTGMZutpko-XPVoH6K8w,"""The Magnolia Room""",,"""879 Freeport Rd""",Creighton,PA,15030,40.581691,-79.77921490000001,4.5,3,1,caterers
11375,SY777wwJW2inHwcKbwO-xA,"""Mgm Optics""",,"""201 Penn Center Blvd, Ste 100""",Pittsburgh,PA,15235,40.4286154,-79.8119556,3.5,3,1,eyewear & opticians
11401,7aZf5c1UNotq4MabBXMZLA,"""Sichuan Gourmet""",Squirrel Hill,"""1900 Murray Ave""",Pittsburgh,PA,15217,40.4358112,-79.923142,4.0,228,1,seafood
11440,fQJ0JhjEoSZPts839cYEaA,"""Caliban Book Shop""",Oakland,"""410 S Craig St""",Pittsburgh,PA,15213,40.4449192,-79.94900870000001,4.5,31,1,appraisal services
11441,ILmAL6cj8fZXuyfrd7pBbQ,"""Rite Aid""",Oakland,"""209 Atwood St""",Pittsburgh,PA,15213,40.440865,-79.95701899999999,3.0,3,1,drugstores
11445,thD0qgWDmvjOkX4LvA1JMQ,"""Hobby Lobby""",,"""6511 Steubenville Pike""",Pittsburgh,PA,15205,40.4472749233,-80.1624321565,3.5,11,1,event planning & services
11460,2wFoMN7J0_X42dUG3Qa3iw,"""PNC Bank""",Squirrel Hill,"""5810 Forbes Ave""",Pittsburgh,PA,15217,40.4377966,-79.9223369,3.0,14,1,financial services
11474,irsqHZvvMdwK5iM3mFZ5Pg,"""Steelhead Brasserie and Wine Bar""",Downtown,"""112 Washington Pl""",Pittsburgh,PA,15219,40.439745,-79.993004,2.5,39,1,american (new)
11488,pvM3obZI5AAal3H4mykHLg,"""Salon Iaomo""",,"""2101 Greentree Rd, # B101""",Pittsburgh,PA,15220,40.3905672,-80.0724608,4.0,18,1,hair salons
11491,2d9ABtvEBcGCcN6B13Fy1w,"""Eighth & Hays""",Homestead,"""130 W Eighth Ave""",Homestead,PA,15120,40.405157,-79.91279899999999,4.5,57,1,cocktail bars
11493,J5JzAUd2wzyArZ-qHT0A4A,"""Poros""",Downtown,"""2 Ppg Pl""",Pittsburgh,PA,15222,40.4402172791,-80.00292191279999,3.5,131,1,lebanese
11511,rAtRO7AC8hFiDfWZrWzPdw,"""Pavement""",Lawrenceville,"""3629 Butler St""",Pittsburgh,PA,15201,40.4662117,-79.9649333,4.5,30,1,shopping
11512,Q5m1xrsHEV3z-w1M0oDe6w,"""Pep Boys""",,"""5055 Library Rd""",Bethel Park,PA,15102,40.3389721,-80.02348,3.5,7,1,auto repair
11565,FG8atOE15c8IoQH_hEb9zA,"""Geppetto Cafe""",Lawrenceville,"""4121 Butler St""",Pittsburgh,PA,15201,40.470101899999996,-79.96091729999999,4.5,102,1,coffee & tea
11578,tMzCl6Hx4Z8zp9JEVsaENA,"""Vintage to Vogue""",,"""502 Valley Brook Rd""",McMurray,PA,15367,40.278425299999995,-80.08325,2.5,3,1,womens clothing
11594,mMzag04MJ2yH5d_SySdoBQ,"""Garden View Cafe""",Oakland,"""300 Halket St""",Pittsburgh,PA,15213,40.444320000000005,-79.95492,3.5,3,1,food
11606,2yu2vnbkI1cBPe24ys0sEw,"""Sportclips Haircuts""",,"""4180 William Penn Hwy""",Monroeville,PA,15146,40.438904,-79.764687,3.5,7,1,mens hair salons
11663,tIfcImEAJ0Wmevp1hA4GLQ,"""Golden Girl Pet Grooming""",,"""5231 Brightwood Rd""",Bethel Park,PA,15102,40.328767,-80.03009,5.0,10,1,pets
11670,dHNhOF7ZYxPvNFoygCElIg,"""Bringing Beautiful""",,"""""",Robinson Township,PA,15106,40.408851399999996,-80.1149414,4.5,11,1,professional services
11673,9aQYvnE-YzJFl_QXMg7OjQ,"""GNC""",,"""1969 Greentree Rd""",Pittsburgh,PA,15220,40.3930767,-80.0663217,5.0,3,1,vitamins & supplements
11678,93ZfzaU2Y3FDSW4-4EGvoA,"""South Side Barber Shop""",South Side,"""1509 E Carson St""",Pittsburgh,PA,15203,40.429029,-79.983018,4.0,27,1,beauty & spas
11703,W4k4E2dbDN6bwtPPgNm-XA,"""Amel's Restaurant""",,"""435 McNeilly Rd""",Pittsburgh,PA,15226,40.3830692,-80.0155838,4.0,68,1,mediterranean
11775,dmgM79l1qLnRWYwSBE48lw,"""Auntie Ann's Pretzels""",,"""145 Mall Blvd""",Monroeville,PA,15146,40.4317076,-79.7914056,2.0,3,1,na
11793,9GuzOketW5TmKPaEe1JdDQ,"""Silver Eye Center For Photography""",Bloomfield,"""4808 Penn Ave""",Pittsburgh,PA,15224,40.465101000000004,-79.9455768,3.0,4,1,arts & entertainment
11809,Mu4ArcjTm34hopa5QP-wsg,"""David I Helfer Jeweler""",Downtown,"""717 Liberty Ave, Ste 312""",Pittsburgh,PA,15222,40.4427705,-79.9994015,5.0,5,1,jewelry
11810,TPKkbzqzjgFMMVGYdNNYtw,"""Kuhn's Market""",,"""745 W Ingomar Rd""",Pittsburgh,PA,15237,40.5808382,-80.05582740000001,4.0,4,1,meat shops
11906,WBlpXWPOfsX9tciZKdlWgQ,"""Friendly's""",,"""43 Lancaster Pike""",Frazer,PA,19355,40.044162571,-75.52592188930001,3.0,9,1,ice cream & frozen yogurt
11922,xoA1_vsxC0xD_fPgDZ2mbg,"""V3 Flatbread Pizza""",Downtown,"""11 Fifth Ave""",Pittsburgh,PA,15222,40.442411299999996,-80.00303120000001,4.0,50,1,pizza
11964,VT8vUd-2s5IdvSNwhNHkpg,"""California Coffee Bar""",Brighton Heights,"""3619 California Ave""",Pittsburgh,PA,15212,40.480720500000004,-80.0415142,5.0,20,1,coffee & tea
11986,dhX6HwaXn_Yb_Hv73SRxwQ,"""Mec Barber Spa""",,"""659 Washington Rd""",Pittsburgh,PA,15228,40.3814613,-80.0442406,3.5,7,1,beauty & spas
11996,AspFf1d9sRaUloPJAHMqAg,"""Sushi Kim Restaurant""",Strip District,"""1241 Penn Ave""",Pittsburgh,PA,15222,40.446483,-79.9916699,3.5,126,1,restaurants
12019,-K1ns3HK47YzogYqOg-9LQ,"""Alpine Pools""",,"""4660 William Flynn Hwy""",Allison Park,PA,15101,40.591731,-79.947445,3.5,3,1,home & garden
12036,UW7693gZ_Ff_VRGgqLRm1w,"""Professional Plumbing & Heating""",,"""2728 Lachman Way""",Pittsburgh,PA,15227,40.3760655,-79.9696277,4.5,3,1,water heater installation/repair
12042,gyNixTgp1yFX97soBZpZ7Q,"""Fitness With A Twist""",South Side,"""70 S 21st St""",Pittsburgh,PA,15203,40.42916470000001,-79.97632259999999,4.0,9,1,fitness & instruction
12052,wUr4HeEhhPeiFb7UmiYRzg,"""Chick'n Bubbly""",Oakland,"""117 Oakland Ave""",Pittsburgh,PA,15213,40.4419184,-79.95719150000001,4.0,111,1,korean
12070,QCZwZLYHkTyYQDr6jdjKjA,"""Graziano's Pizzeria""",Lawrenceville,"""4109 Penn Ave""",Pittsburgh,PA,15224,40.4659283,-79.9548907,4.0,30,1,pizza
12071,pVZdH35B95NKyXNA9rnW0w,"""The Artsmiths of Pittsburgh""",,"""1635 McFarland Rd""",Pittsburgh,PA,15216,40.394080919400004,-80.0466350757,4.5,4,1,cafes
12096,Q5ZxzCAWf4kOVDrvVGRKrw,"""Budget""",,"""6215 Babcock Blvd""",Pittsburgh,PA,15237,40.5533664,-80.02271440000001,1.5,3,1,airports
12122,kxAQGy2ZpguB7zn8Nqgb_g,"""Moonlight Truck Food""",Squirrel Hill,"""Margaret Morrison St""",Pittsburgh,PA,15213,40.442195025,-79.93857264520001,3.0,6,1,food
12125,neoytxCAGDxIoJQfLahzOg,"""Randall S W Toyes and Giftes""",Shadyside,"""806 Ivy St""",Pittsburgh,PA,15232,40.4513726,-79.9322292,4.5,4,1,shopping
12141,gkuLY-Z0hWag3zLUtcTBjA,"""Giant Eagle""",Homestead,"""420 Waterfront Dr E""",Homestead,PA,15120,40.4111498,-79.908469,3.0,37,1,books
12146,p2sGdRSxFN_f6BWzvI3koA,"""Johnston the Florist""",,"""3900 Monroeville Blvd""",Monroeville,PA,15146,40.436648999999996,-79.779249,2.0,3,1,florists
12150,gomzC2CMt6MD_ykOSGwdDA,"""Sushi Tomo""",,"""4812 McKnight Rd""",Pittsburgh,PA,15237,40.52578270000001,-80.0051187,4.0,94,1,japanese
12184,b2NrUkF95pnvCsmmM0w-ZA,"""Modern Exteriors and Design""",,"""""",Clairton,PA,15025,40.292291999999996,-79.881715,1.0,4,1,contractors
12224,dJnmzE5n5xJgHiGiyMGosw,"""Bedner's Farm Market""",,"""1520 Bower Hill Rd""",Pittsburgh,PA,15241,40.3611412,-80.0891511,4.5,3,1,farmers market
12262,5aX40vEZx2zegvRe_6xVOg,"""Phillips Heating & Ac Company""",South Side Slopes,"""1100 E Warrington Ave""",Pittsburgh,PA,15210,40.4219253,-79.98642480000001,3.5,5,1,home services
12276,3zdicvwBfRNaZTOwwupWQA,"""Zipcar""",The Hill District,"""""",Pittsburgh,PA,15219,40.440368,-79.9836108,2.0,11,1,automotive
12292,DUnmwtLWiRHolspcOIsJ6A,"""Barnes & Noble Booksellers""",,"""926 Freeport Rd""",Pittsburgh,PA,15238,40.4891725952,-79.8940369989,3.5,9,1,toy stores
12305,wRKYaVXTks43GVSI2awTQA,"""Bob Evans""",,"""2210 Lebanon Church Rd""",West Mifflin,PA,15122,40.34839,-79.94221,2.5,16,1,restaurants
12316,vKaYrOZ1qUiDgIh1QSenlQ,"""Southpointe Nails""",,"""1800 Main St, Ste 120""",Canonsburg,PA,15317,40.2756069205,-80.1673966283,3.0,10,1,beauty & spas
12318,SpXBHrRfXJdocVkQa16zxg,"""Cold Stone Creamery""",Squirrel Hill,"""5800 Forbes Ave""",Pittsburgh,PA,15217,40.4379424291,-79.922830377,3.0,35,1,juice bars & smoothies
12325,ndq4rJcFLMbMGU_gK5u79Q,"""China Wok""",The Hill District,"""1202 5th Ave""",Pittsburgh,PA,15219,40.4384838,-79.98879559999999,3.5,31,1,japanese
12338,Atk1wlFBAjbxczwL0uwQVg,"""David's Diner""",,"""2800 Freeport Rd""",Springdale,PA,15144,40.5540066512,-79.7710539497,5.0,81,1,diners
12339,GmVMSGL416IBM5HCYcF6vw,"""Penhollows""",Shadyside,"""244A S Highland Ave""",Pittsburgh,PA,15206,40.4576285,-79.9253002,3.5,8,1,home decor
12347,ko0DeeAJ5r2qfWT1gZhfXQ,"""Complete Chiropractic of South Hills""",,"""414 McMurray Rd""",Bethel Park,PA,15102,40.3129,-80.06688,5.0,3,1,health & medical
12364,3RWJGTSIRvGmIbwvMqAOuw,"""Slate Bistro""",,"""28 Donati Rd""",Pittsburgh,PA,15241,40.3386539,-80.050247,3.5,28,1,american (new)
12382,u2Wvpa2pj2jfYcYSs_LETg,"""K & T's Fish and Chicken""",Oakland,"""4521 Centre Ave""",Pittsburgh,PA,15213,40.4519297,-79.95250229999999,3.0,17,1,moroccan
12393,ym7uH6ZpCfKQ1Of7eaYGCA,"""Donte's Pizzeria""",,"""6409 Brownsville Rd""",Pittsburgh,PA,15236,40.31836,-79.99589540000001,4.5,37,1,pizza
12471,fvFcWaiIKzLy-AxFd96HkA,"""OLeary HOME Inspection""",Downtown,"""""",Pittsburgh,PA,,40.440624799999995,-79.9958864,5.0,3,1,home inspectors
12512,0Z4__YJxeGnYcbx05Mfw_w,"""Honey Moon Chinese Restaurant""",,"""2021 Clay Pike""",Irwin,PA,15642,40.305713,-79.726267,2.5,3,1,food
12535,IdHIcxCFq84evujUVNcB5w,"""Gateway Center Cafeteria""",Downtown,"""603 Stanwix St""",Pittsburgh,PA,15222,40.442221999999994,-80.0044807,3.5,10,1,restaurants
12543,f_dbdkcUedhjsLPgaxyEqA,"""Roth Computer Register""",Brookline,"""1600 Saw Mill Run Blvd""",Pittsburgh,PA,15210,40.4000428408,-80.00056337640001,2.5,3,1,office equipment
12582,9HETz9F3ER0bcUDr5lDCgQ,"""Anytime Fitness""",,"""1718 William Flynn Hwy""",Glenshaw,PA,15116,40.5390652,-79.9624967,3.5,10,1,active life
12608,cPYdwElCHVU794t-Cs0ToQ,"""Obey House Tavern""",,"""1337 Steuben St""",Pittsburgh,PA,15205,40.441770299999995,-80.0870155,4.0,10,1,bars
12637,d65kicaKohFwQmByS0duyA,"""Best-Made Shoes""",Bloomfield,"""5143 Liberty Ave""",Pittsburgh,PA,15224,40.458093,-79.94196290000001,2.5,6,1,local services
12647,-J5wUuLJdr0s28InPxGkmw,"""Edward Ross, OD""",Squirrel Hill,"""1821 Murray Ave""",Pittsburgh,PA,15217,40.4364725,-79.9226914,4.0,5,1,optometrists
12652,BrORoLCE5zVY6ekUb6omNA,"""Mad Noodles""",South Side,"""2017 E Carson St""",Pittsburgh,PA,15203,40.4287193,-79.9769083,3.5,50,1,chinese
12655,qTyTmO8IOnFmQs6G87pPdw,"""Community Event @ Monster Mini Golf""",,"""3813 William Penn Hwy""",Monroeville,PA,15146,40.4377549,-79.7828585,4.5,10,1,local flavor
12656,hbYY29onGCq0yux6rFhb9w,"""Panera Bread""",,"""250 Mcholme Dr""",Pittsburgh,PA,15275,40.44935,-80.174279,2.5,25,1,sandwiches
12666,Wt_wJsZiMu7pOZoCixHyRA,"""Scholl's Bicycle Center""",,"""649 Center Ave""",West View,PA,15229,40.51583,-80.022515,5.0,5,1,outdoor gear
12682,pszdjfTLVr-fKOjl9zh8bw,"""The Skin Center Medical Spa""",Shadyside,"""806 S Aiken Ave""",Pittsburgh,PA,15232,40.4507282,-79.9357367,4.0,8,1,health & medical
12685,Wx3bR684QTQBycOezx68vQ,"""McGuinn's Barber Shop""",Mt. Washington,"""2140 Murray Ave""",Pittsburgh,PA,15217,40.428693151,-80.0075030253,5.0,7,1,hair salons
12687,Rkxi5eR5aKGqtCCMwRAWmA,"""Au Bon Pain""",Squirrel Hill,"""4910 Forbes Ave""",Pittsburgh,PA,15213,40.4441079579,-79.942157678,3.0,7,1,coffee & tea
12754,Aqj_fKZJAPThXqFKzia4SA,"""Lon Micheals Wellness Spa & Salon""",,"""436 Allegheny River Blvd""",Oakmont,PA,15139,40.5172758,-79.8426085,2.5,3,1,hair stylists
12784,3Izv7UguuUGZt-DYBw1gaw,"""Dale Shirley's Professional Auto Service""",,"""4398 Old William Penn Hwy""",Monroeville,PA,15146,40.4449532,-79.7660215,4.0,4,1,tires
12790,CBtj9lW_HS5HRqlvsi0rCw,"""Walgreens""",Homestead,"""133 W 8Th Ave""",Homestead,PA,15120,40.405598600000005,-79.9132232,3.0,6,1,drugstores
12794,_AfIlJKXQ2u8YV7PeOFQ-w,"""Minuteman Press""",Downtown,"""905 Liberty Ave""",Pittsburgh,PA,15222,40.4431549,-79.9977548,1.0,3,1,arts & crafts
12823,3QO4ftuyncMjDBU3mrSjNA,"""L J Marks Jewelers""",,"""650 Washington Rd""",Mount Lebanon,PA,15228,40.3813464,-80.04430740000001,5.0,3,1,jewelry
12836,YeFDbJeQCyLLibc7yQQWYQ,"""Hahn Nursery Garden Center & Greenhouses""",,"""5443 Babcock Blvd""",Pittsburgh,PA,15237,40.54405,-80.029522,5.0,3,1,food
12866,LVy-JKhEhZZK8MFj007KOQ,"""Pittsburgh Dry Cleaners & Furriers""",,"""618 Wood St""",Wilkinsburg,PA,15221,40.4410049,-79.88591,3.0,4,1,dry cleaning
12871,A953arbyMcmqsTc42H952A,"""The Battlegrounds""",Homestead,"""530 E 8th Ave""",Munhall,PA,15120,40.4087409,-79.9036203,4.0,5,1,kids activities
12894,g7OwoWQ_haDYnfmhCYMvSg,"""Deli on Butler Street""",Lawrenceville,"""4034 Butler St""",Pittsburgh,PA,15201,40.4693357,-79.9612328,4.5,68,1,delis
12930,Da9UoUoLBqQAEZa2QOjeBQ,"""Value City Furniture""",,"""3801 William Penn Highway""",Monroeville - Pit.,PA,15146,40.4378385,-79.7837933,2.0,10,1,home decor
12931,0WNlzy9vkHEvVNOSEcI5rw,"""Colette's Body & Sole Day Spa""",,"""102 W Pike St""",Houston,PA,15342,40.2224879,-80.2186268,5.0,4,1,skin care
12934,cHWDSqBJhSBC3rPL7XGpjA,"""Chestnut Ridge Apartments""",,"""3200 Chestnut Ridge Dr""",Carnegie,PA,15106,40.4166304,-80.1085377,2.0,6,1,apartments
13029,7laMR-BRYEqBv8oWexxkKw,"""Brother Tom's Bakery""",Sharpsburg,"""808 Main St""",Pittsburgh,PA,15215,40.494871999999994,-79.934197,3.5,16,1,bakeries
13032,Y4xl-m64e5YnyPgVU0CYyQ,"""Goodwill of Southwestern Pennsylvania""",South Side,"""2700 E Carson St""",Pittsburgh,PA,15203,40.4266908848,-79.9668827192,3.5,37,1,fashion
13082,dRbmeC5hl211hH-WeMtv-g,"""The Milkshake Factory""",Downtown,"""314 Fifth Ave""",Pittsburgh,PA,15222,40.4401919458,-80.00007703899999,4.5,116,1,desserts
13089,SLlQSsSHukMz4-3-eaOgUA,"""Chick-fil-A""",Oakland,"""3990 5th Ave""",Pittsburgh,PA,15213,40.444179999999996,-79.95341433,2.5,3,1,event planning & services
13092,QYlhQ9ivxXFSD7dE_1cy5A,"""Big Shot Bob's House of Wings - Beechview""",Beechview,"""2102 Broadway Ave""",Pittsburgh,PA,15216,40.405401,-80.0301225,4.5,22,1,burgers
13093,xLy3aWEbtpoUSVdjuHBS0A,"""Plaza Azteca""",,"""1000 Sutherland Dr""",Pittsburgh,PA,15205,40.45648,-80.168472,3.5,132,1,mexican
13109,mXS1oNaLd2mHJ9lsReOF_A,"""Baja Bar & Grill""",,"""1366 Old Freeport Rd""",Pittsburgh,PA,15238,40.485929999999996,-79.873137,2.5,9,1,event planning & services
13111,qCPPPZf_Q8oLXUILSF4vUA,"""Jay Villella - RE/MAX Select Realty""",East Liberty,"""5817 Penn Ave""",Pittsburgh,PA,15206,40.462385499999996,-79.92747469999999,5.0,3,1,real estate
13112,uc8lLcqcznJ320IgRe1vzw,"""Good Samaritan Thrift Store""",,"""355 Lincoln Hwy, Ste 21""",North Versailles,PA,15137,40.384313399999996,-79.8214666,4.5,3,1,thrift stores
13135,hsDkxhc-_YYsVqAeQBJJjg,"""Big Jim's Restaurant & Bar""",Greenfield,"""201 Saline St""",Pittsburgh,PA,15207,40.4270451,-79.9496055,4.0,164,1,american (traditional)
13141,PyNA7Ae9X2S4eFCA1vWWEA,"""Little Caesars""",,"""9225 Rte 30""",Irwin,PA,15642,40.3204078444,-79.6924335687,2.5,3,1,pizza
13143,sS6yie4OoRkIxU4vQN--Gw,"""Glitter & Grit""",Lawrenceville,"""5300 Butler St""",Pittsburgh,PA,15201,40.4821656,-79.95227790000001,5.0,25,1,bridal
13157,tkWjZ534E4VSSxm2DYKcew,"""Bloomers Floral Studio""",,"""643 Allegheny Ave""",Oakmont,PA,15139,40.5213236,-79.8429869,5.0,5,1,florists
13180,uZMFHhJhzulmLe9u2IfL5A,"""Relics on 5th""",,"""930 5th Ave""",Coraopolis,PA,15108,40.5177363796,-80.1653058082,4.5,4,1,used
13198,bwXvZukFN0utPlJUOl9TgA,"""John Duffy, PT ,OCS""",,"""2101 Greentree Rd, Ste A113, Phoenix Rehabilitation and Health Services""",Pittsburgh,PA,15220,40.3905672,-80.0724608,5.0,4,1,physical therapy
13220,WWq9db_FVJDFlGPKcfCcAg,"""Brett James Salon""",Downtown,"""945 Liberty Ave""",Pittsburgh,PA,15222,40.443581,-79.99652090000001,5.0,5,1,beauty & spas
13297,pn3NGJP8X6SqWQAiN7DM5w,"""PennDot Photo & Exam Center""",,"""225 W Lacester Ave""",frazer,PA,19401,40.0417775,-75.4929527,2.0,20,1,departments of motor vehicles
13317,5UoASJvovfFzp-eUCiFfWQ,"""Northwood Realty Services""",,"""11722 Frankstown Rd""",Pittsburgh,PA,15235,40.466817999999996,-79.8255,5.0,4,1,home services
13318,AoSG2sfQy3rf6ySzEYgQiA,"""Gabriel Brothers""",,"""7900 McKnight Rd""",Pittsburgh,PA,15237,40.554589,-80.01615600000001,4.5,10,1,discount store
13319,H-B_JoResY4PyXND1_DQfg,"""Mad Mex - North Hills""",,"""7905 McKnight Rd""",Pittsburgh,PA,15237,40.549685700000005,-80.01934279999999,3.5,133,1,mexican
13320,qvqR1MDPkt3NLAjwfRAxhw,"""Game Masters""",,"""3439 Babcock Blvd""",Pittsburgh,PA,15237,40.5401698,-80.0256625,4.5,7,1,arts & entertainment
13321,EdGMt5u1FomuMxu5dHSEjQ,"""North Hills Art Center""",,"""3432 Babcock Blvd""",Pittsburgh,PA,15237,40.5399034,-80.02447009999999,5.0,3,1,education
13331,Bma7RgPLdDAFvycubjdVOA,"""Sam's Club""",,"""2251 Century Dr""",West Mifflin,PA,15122,40.3437256,-79.9490655,3.0,8,1,shopping
13363,NfbmsDYYhfYwjoByqUzhHw,"""Deka Lash""",,"""11269 Perry Hwy""",Pittsburgh,PA,15090,40.6214365,-80.0549444,4.5,17,1,beauty & spas
13368,YdVtYND0JYab3DbDpNKa0A,"""CrossFit War Streets""",North Side,"""600 W North Ave""",Pittsburgh,PA,15212,40.4546501,-80.0129013,5.0,3,1,active life
13375,b68Blyr9ABuvYsqYMz08GA,"""Arby's""",,"""5205 Library Rd""",Bethel Park,PA,15102,40.333904,-80.02361090000001,2.5,3,1,restaurants
13376,kNp9k5ImZRzyfNa3OTGIOw,"""Montour Trail Council""",,"""5702 Smith Dr""",Bethel Park,PA,15102,40.313388245700004,-80.0291160003,5.0,8,1,community service/non-profit
13438,cvLS5XdoeNluAiwBBm6opA,"""Franco's Trattoria""",,"""4120 Washington Rd""",Peters Township,PA,15317,40.2670521,-80.12908259999999,3.0,47,1,italian
13485,0GYM_KIMzwH_CeL6S279Pw,"""Lapko's Bar & Grill""",Homestead,"""340 E 8th Ave""",Homestead,PA,15120,40.408465,-79.907484,3.5,4,1,bars
13512,mtHyTGs45610CPKCETQDEw,"""ToonSeum""",Downtown,"""945 Liberty Ave""",Pittsburgh,PA,15222,40.443581,-79.99652090000001,4.0,23,1,shopping
13556,qIyj7PNUSA1B6_rOkc8nIQ,"""Nicky's Thai Kitchen""",,"""1026 Mount Nebo Rd""",Pittsburgh,PA,15237,40.551162,-80.0874089,3.5,35,1,salad
13578,P2uPCEBP2VZsApnvEHCgag,"""All India""",Oakland,"""315 N Craig St""",Pittsburgh,PA,15213,40.452189399999995,-79.95257140000001,4.0,132,1,indian
13589,PSRIXaqwFc2yYc-cxjADBA,"""Belmont Auto Service""",,"""1212 Montier St""",Pittsburgh,PA,15221,40.44298,-79.875058,4.5,3,1,towing
13604,qJ2l5htRHGZx54zo-osWFA,"""Master Muffler & Brakes""",Homestead,"""1415 West St""",Homestead,PA,15120,40.4023107,-79.9069188,3.5,7,1,auto repair
13606,g92ZTaFOd539a8RqFJ4BLA,"""South Hills Eye Associates""",,"""713 Washington Rd""",Pittsburgh,PA,15228,40.4252293,-79.8652493,2.0,8,1,doctors
13630,KE7Uq1iXOQVhsPIzE800Aw,"""Au ""Grottens"" Cafe & Catering""",,"""2973 South Park Rd""",Bethel Park,PA,15102,40.327321999999995,-80.042015,4.5,3,1,american (new)
13633,E72v0I14_XQWIOEx5P6ufg,"""Annes Nails and Spa""",,"""1609 E Railroad St""",Heidelberg,PA,15106,40.3931748,-80.0875907,5.0,6,1,nail salons
13636,fUB_aqie86DKI2tTAkG72w,"""Pizza Bellagio""",,"""254 Freeport Rd""",Pittsburgh,PA,15238,40.4926429,-79.86305250000001,2.0,4,1,pizza
13685,YKvRkkluFUMCsFwUyp3SVw,"""Evil Swine BBQ""",Strip District,"""""",Pittsburgh,PA,15222,40.4475255,-79.9933976,3.5,3,1,food trucks
13686,ZYof0WYlilJ3pgWNSgmYKQ,"""Pizza Milano""",The Hill District,"""1304 5th Ave""",Pittsburgh,PA,15219,40.4384661,-79.9880046,3.5,70,1,restaurants
13697,xZyltUBb0qla-MMQLhrVIg,"""Crossroads Mower Center""",,"""611 E Mcmurray Rd""",Mc Murray,PA,15317,40.2801276,-80.0832839,2.0,5,1,local services
13755,MNrM4X_yYNGoqggBG_sG1g,"""TSA Checkpoint Main""",,"""1000 Airport Blvd""",Pittsburgh,PA,15231,40.4957722,-80.2413113,3.5,5,1,public services & government
13780,jUxLgiiYKnsM238eUZUqlA,"""Sir Pizza""",,"""320 Sewickley Oakmont Rd""",Pittsburgh,PA,15237,40.5383029873,-80.0497115747,3.0,42,1,restaurants
13806,qgxApQsU6QbmdddPBftZmw,"""Community Super Market""",,"""3220 Leechburg Rd""",New Kensington,PA,15068,40.5827136774,-79.7102730453,2.0,3,1,grocery
13808,6Xeu6Uf-Yiti-P30A2ErsQ,"""Pinnacle Internal Medicine Associates""",Shadyside,"""532 S Aiken Ave, Ste 201""",Pittsburgh,PA,15232,40.4545191,-79.9384786,1.5,3,1,health & medical
13815,QUdBfQECF6Y83GNM5xG0WQ,"""S F Kyojin Mobile Repair""",Shadyside,"""5892 Ellsworth Ave""",Pittsburgh,PA,15232,40.4580184,-79.9275787,5.0,3,1,it services & computer repair
13821,HFvgLWAIoVFUdD7PaMu5wQ,"""Dairy Queen""",,"""4251 Northern Pike, Ste E""",Monroeville,PA,15146,40.4341275,-79.7560568,2.5,7,1,food
13832,EafZ9d170S18zqd1qs9MLQ,"""Settlers Ridge""",,"""200 Settler Ridge Center Dr""",Pittsburgh,PA,15136,40.439408,-80.149135,3.5,9,1,shopping centers
13837,qTvDCqrn_8K-WBwxWhZW2A,"""Paul J Betlyn Company""",,"""1144 Maple Street Extension""",Coraopolis,PA,15108,40.506701299999996,-80.1729561,5.0,16,1,heating & air conditioning/hvac
13878,WHxonk9W_sRLk8cwOoZQqQ,"""Good Fellas Barber Shop""",,"""147 Noble Ave""",Pittsburgh,PA,15205,40.4360448,-80.0647887,4.0,12,1,beauty & spas
13968,wBBdvCri0BD48xGtO-w0EQ,"""Midas""",,"""5002 Route 8""",Gibsonia,PA,15044,40.60526289999999,-79.9467689,2.5,3,1,tires
13997,deKntyPNf8EdgllEv1HgFw,"""Sunoco""",Oakland,"""301 Craft Ave""",Pittsburgh,PA,15213,40.435614,-79.96088,2.0,4,1,gas stations
14012,vPFEoCuvzDTBQTMzQZFgkw,"""Sky Zone Trampoline Park""",,"""160 Levin Way""",Monroeville,PA,15146,40.4338454852,-79.7300399032,4.0,9,1,event planning & services
14032,tXZxc-3HcXvj1Z-Tzs4Mkw,"""El Campesino""",,"""460 Home Dr""",Pittsburgh,PA,15275,40.4512448,-80.18337640000001,3.0,45,1,mexican
14050,oIjJlx_UxH4TmQ-dl54nCw,"""Schenley Oval Sportsplex""",Oakland,"""3898 Blvd Of The Allies""",Pittsburgh,PA,15213,40.4341625,-79.9519723,4.5,5,1,active life
14069,Srl3TFbOAfa-9_1m_wK6xQ,"""Nobby's Pizzeria""",,"""373 Vanadium Rd""",Pittsburgh,PA,15243,40.369034,-80.0851376,3.5,15,1,pizza
14101,Hiq3poHjXEz8YEY4Ddkn8w,"""Guns Priced Right""",,"""100 Bettis Rd, Ste 1""",Dravosburg,PA,15034,40.356544899999996,-79.896124,4.5,9,1,guns & ammo
14110,P8mTn-AmI3DJdE5ceiPhag,"""Leff Marvins Cleaners""",Bellevue,"""4449 Ohio River Blvd""",Pittsburgh,PA,15202,40.490598999999996,-80.060186,3.5,3,1,dry cleaning & laundry
14171,vH3U-nP1hg7Wr0A9_i201g,"""The Warhol: Cafe""",North Side,"""117 Sandusky St""",Pittsburgh,PA,15212,40.4483599,-80.002528,2.5,3,1,restaurants
14213,pV-HcFpaRa7MpmFPKjG9JA,"""The Loft""",,"""1118 S Braddock Ave""",Swissvale,PA,15218,40.432056200000005,-79.8937686,3.5,8,1,nightlife
